,SALE TYPE,SOLD DATE,PROPERTY TYPE,ADDRESS,CITY,STATE OR PROVINCE,ZIP OR POSTAL CODE,PRICE,BEDS,BATHS,LOCATION,SQUARE FEET,LOT SIZE,YEAR BUILT,DAYS ON MARKET,$/SQUARE FEET,HOA/MONTH,STATUS,NEXT OPEN HOUSE START TIME,NEXT OPEN HOUSE END TIME,URL (SEE http://www.redfin.com/buy-a-home/comparative-market-analysis FOR INFO ON PRICING),SOURCE,MLS#,FAVORITE,INTERESTED,LATITUDE,LONGITUDE
0,PAST SALE,March-31-2021,Single Family Residential,28 Hillandale Rd,Danbury,CT,6811,499900.0,3.0,3.0,Danbury,2490.0,12196.0,2016.0,201.0,201.0,,Sold,,,http://www.redfin.com/CT/Danbury/28-Hillandale-Rd-06811/home/143122930,Smart MLS,170373555,N,Y,41.4290875,-73.4837711
1,PAST SALE,August-6-2021,Condo/Co-op,1465 E Putnam Ave #519,Greenwich,CT,6870,370000.0,1.0,1.0,Old Greenwich,765.0,,1977.0,73.0,484.0,395.0,Sold,,,http://www.redfin.com/CT/Old-Greenwich/1465-E-Putnam-Ave-06870/unit-519/home/107021872,Smart MLS,170404106,N,Y,41.0468381,-73.5704711
2,PAST SALE,August-12-2021,Condo/Co-op,9 Blue Mountain Rdg #9,Norwalk,CT,6851,456000.0,3.0,3.0,Cranbury,2199.0,,1987.0,67.0,207.0,490.0,Sold,,,http://www.redfin.com/CT/Norwalk/9-Blue-Mountain-Rdg-06851/unit-9/home/174374315,Smart MLS,170408281,N,Y,41.1317164,-73.4095463
3,PAST SALE,May-31-2019,Condo/Co-op,61 Hidden Brook Trl #61,Bethel,CT,6801,438000.0,3.0,3.5,Grassy Plain,3158.0,,2010.0,871.0,139.0,390.0,Sold,,,http://www.redfin.com/CT/Bethel/61-Hidden-Brook-Trl-06801/unit-61/home/147982642,Smart MLS,170176264,N,Y,41.3708439,-73.4336293
4,PAST SALE,November-13-2020,Condo/Co-op,30 Glenbrook Rd Unit 3D,Stamford,CT,6902,176000.0,1.0,1.0,Glenbrook,797.0,,1962.0,339.0,221.0,449.0,Sold,,,http://www.redfin.com/CT/Stamford/30-Glenbrook-Rd-06902/unit-3D/home/107108371,Smart MLS,170322054,N,Y,41.0564237,-73.5297339
5,PAST SALE,August-17-2020,Single Family Residential,46 Prudence Dr,Stamford,CT,6907,565000.0,4.0,2.0,Springdale,1628.0,10018.0,1950.0,427.0,347.0,,Sold,,,http://www.redfin.com/CT/Stamford/46-Prudence-Dr-06907/home/107082643,Smart MLS,170307041,N,Y,41.1003506,-73.5190232
6,PAST SALE,November-20-2019,Single Family Residential,24 White Birch Rd,Ridgefield,CT,6877,433750.0,4.0,3.0,Ridgefield,3028.0,44431.0,1955.0,698.0,143.0,,Sold,,,http://www.redfin.com/CT/Ridgefield/24-White-Birch-Rd-06877/home/53648384,Smart MLS,170187678,N,Y,41.245148,-73.4939526
7,PAST SALE,August-9-2021,Single Family Residential,1980 Cutspring Rd,Stratford,CT,6614,521500.0,4.0,2.5,Stratford,3185.0,26571.0,1991.0,70.0,164.0,,Sold,,,http://www.redfin.com/CT/Stratford/1980-Cutspring-Rd-06614/home/107219283,Smart MLS,170407198,N,Y,41.2426509,-73.1302237
8,PAST SALE,September-16-2021,Single Family Residential,121 Alberts Hill Rd,Newtown,CT,6482,710000.0,4.0,2.5,Sandy Hook,3480.0,93654.0,1995.0,32.0,204.0,,Sold,,,http://www.redfin.com/CT/Sandy-Hook/121-Alberts-Hill-Rd-06482/home/107638831,Smart MLS,170400102,N,Y,41.445563,-73.307146
9,PAST SALE,March-19-2021,Single Family Residential,90 Portland Ave,Wilton,CT,6897,485000.0,3.0,2.5,Georgetown,1710.0,53578.0,1995.0,213.0,284.0,,Sold,,,http://www.redfin.com/CT/Wilton/90-Portland-Ave-06897/home/107150493,Smart MLS,170350854,N,Y,41.2637249,-73.4374726
10,PAST SALE,June-1-2021,Condo/Co-op,216 Melody Ln #216,Fairfield,CT,6824,365000.0,3.0,1.5,Fairfield,1355.0,,1974.0,139.0,269.0,318.0,Sold,,,http://www.redfin.com/CT/Fairfield/216-Melody-Ln-06824/unit-216/home/172904365,Smart MLS,170385532,N,Y,41.1793719,-73.2499601
11,PAST SALE,November-16-2020,Single Family Residential,12 Empire Ln,Bethel,CT,6801,640000.0,4.0,2.5,Bethel,4640.0,49658.0,1997.0,336.0,138.0,,Sold,,,http://www.redfin.com/CT/Bethel/12-Empire-Ln-06801/home/107276484,Smart MLS,170331777,N,Y,41.4006242,-73.3845234
12,PAST SALE,July-16-2021,Single Family Residential,42 Well Ave,Danbury,CT,6810,350000.0,3.0,1.5,Danbury,1572.0,13068.0,1880.0,94.0,223.0,,Sold,,,http://www.redfin.com/CT/Danbury/42-Well-Ave-06810/home/107000206,Smart MLS,170396069,N,Y,41.3923743,-73.4697882
13,PAST SALE,May-7-2021,Single Family Residential,30 Cherry St,Darien,CT,6820,565000.0,3.0,2.0,Noroton Heights,1432.0,6098.0,1951.0,164.0,395.0,,Sold,,,http://www.redfin.com/CT/Darien/30-Cherry-St-06820/home/107157763,Smart MLS,170244589,N,Y,41.0686235,-73.4834138
14,PAST SALE,October-1-2021,Condo/Co-op,19 Ryan Ave Unit B,Norwalk,CT,6854,442000.0,3.0,2.5,South Norwalk,2388.0,,2007.0,17.0,185.0,250.0,Sold,,,http://www.redfin.com/CT/Norwalk/19-Ryan-Ave-06854/unit-B/home/107828770,Smart MLS,170407220,N,Y,41.080825,-73.4257328
15,PAST SALE,July-1-2019,Single Family Residential,160 Rock Rimmon Rd,Stamford,CT,6903,596500.0,4.0,3.0,North Stamford,2324.0,43560.0,1965.0,840.0,257.0,,Sold,,,http://www.redfin.com/CT/Stamford/160-Rock-Rimmon-Rd-06903/home/107101799,Smart MLS,170131277,N,Y,41.1408207,-73.5641749
16,PAST SALE,August-28-2020,Condo/Co-op,100 Richards Ave #109,Norwalk,CT,6854,366000.0,2.0,2.0,West Norwalk,1101.0,,2019.0,416.0,332.0,410.0,Sold,,,http://www.redfin.com/CT/Norwalk/100-Richards-Ave-06854/unit-109/home/107821273,Smart MLS,170300896,N,Y,41.0969588,-73.451605
17,PAST SALE,June-28-2021,Single Family Residential,11 Elaine St,Trumbull,CT,6611,414611.0,2.0,1.5,Trumbull,1245.0,21344.0,1948.0,112.0,333.0,,Sold,,,http://www.redfin.com/CT/Trumbull/11-Elaine-St-06611/home/107206909,Smart MLS,170400089,N,Y,41.2382749,-73.2124073
18,PAST SALE,January-21-2021,Single Family Residential,1 Cornwall Dr,Norwalk,CT,6850,480000.0,3.0,2.0,Norwalk,1235.0,13939.0,1963.0,270.0,389.0,,Sold,,,http://www.redfin.com/CT/Norwalk/1-Cornwall-Dr-06850/home/107812607,Smart MLS,170355479,N,Y,41.1255557,-73.4423985
19,PAST SALE,September-21-2021,Single Family Residential,267 Thunder Lake Rd,Wilton,CT,6897,780000.0,4.0,2.5,Wilton,2568.0,95832.0,1992.0,27.0,304.0,,Sold,,,http://www.redfin.com/CT/Wilton/267-Thunder-Lake-Rd-06897/home/107151568,Smart MLS,170412623,N,Y,41.2620236,-73.4451197
20,PAST SALE,June-21-2019,Single Family Residential,18 Topfield Rd,Danbury,CT,6811,442000.0,4.0,2.5,King St.,2960.0,34848.0,1975.0,850.0,149.0,,Sold,,,http://www.redfin.com/CT/Danbury/18-Topfield-Rd-06811/home/106982488,Smart MLS,170180403,N,Y,41.4028862,-73.4832286
21,PAST SALE,January-11-2021,Single Family Residential,1968 Stratfield Rd,Fairfield,CT,6825,432000.0,3.0,1.5,Stratfield,1744.0,20037.0,1941.0,280.0,248.0,,Sold,,,http://www.redfin.com/CT/Fairfield/1968-Stratfield-Rd-06825/home/107132968,Smart MLS,170354455,N,Y,41.2059303,-73.2435236
22,PAST SALE,August-7-2019,Single Family Residential,6 Castaway Dr,Danbury,CT,6811,449500.0,4.0,2.5,Aunt Hack,3108.0,45738.0,1971.0,803.0,145.0,,Sold,,,http://www.redfin.com/CT/Danbury/6-Castaway-Dr-06811/home/106983858,Smart MLS,170192030,N,Y,41.4066311,-73.4949652
23,PAST SALE,July-24-2020,Single Family Residential,99 White Birch Rd,New Canaan,CT,6840,869000.0,4.0,3.0,New Canaan,2566.0,43995.0,1962.0,451.0,339.0,,Sold,,,http://www.redfin.com/CT/New-Canaan/99-White-Birch-Rd-06840/home/107234194,Smart MLS,170299816,N,Y,41.1182275,-73.4795004
24,PAST SALE,March-1-2021,Single Family Residential,19 Cross Hwy,Westport,CT,6880,795800.0,3.0,3.0,Westport,2437.0,14810.0,1959.0,231.0,327.0,,Sold,,,http://www.redfin.com/CT/Westport/19-Cross-Hwy-06880/home/107261954,Smart MLS,170347006,N,Y,41.155669,-73.3592414
25,PAST SALE,August-23-2019,Condo/Co-op,85 Camp Ave Unit 10E,Stamford,CT,6907,432500.0,2.0,1.5,Springdale,1625.0,,2007.0,787.0,266.0,203.0,Sold,,,http://www.redfin.com/CT/Stamford/85-Camp-Ave-06907/unit-10E/home/107111563,Smart MLS,170201476,N,Y,41.09371,-73.51571
26,PAST SALE,July-1-2021,Single Family Residential,83 Fan Hill Rd,Monroe,CT,6468,482500.0,4.0,3.0,Monroe Center,2700.0,100187.0,1966.0,109.0,179.0,,Sold,,,http://www.redfin.com/CT/Monroe/83-Fan-Hill-Rd-06468/home/107066521,Smart MLS,170388007,N,Y,41.3354163,-73.2107465
27,PAST SALE,,Condo/Co-op,15 Moorland Dr,Danbury,CT,6810,475000.0,2.0,2.5,,1760.0,,2017.0,,270.0,,,,,http://www.redfin.com/CT/Danbury/15-Moorland-Dr-06810/home/146965808,,,N,Y,41.3861775,-73.5235226
28,PAST SALE,May-29-2020,Single Family Residential,3 Pilgrim Ln,Monroe,CT,6468,509000.0,5.0,2.5,Monroe,3550.0,43560.0,1979.0,507.0,143.0,,Sold,,,http://www.redfin.com/CT/Monroe/3-Pilgrim-Ln-06468/home/107074195,Smart MLS,170253329,N,Y,41.3095613,-73.2360303
29,PAST SALE,March-8-2021,Condo/Co-op,95 Columbus Pl #4,Stamford,CT,6907,408000.0,3.0,3.0,Springdale,2400.0,,1982.0,224.0,170.0,325.0,Sold,,,http://www.redfin.com/CT/Stamford/95-Columbus-Pl-06907/unit-4/home/107118957,Smart MLS,170352402,N,Y,41.0992399,-73.5128766
30,PAST SALE,June-30-2021,Single Family Residential,185 Moffitt St,Bridgeport,CT,6606,310000.0,4.0,2.0,North End,1935.0,4791.0,1980.0,110.0,160.0,,Sold,,,http://www.redfin.com/CT/Bridgeport/185-Moffitt-St-06606/home/107065873,Smart MLS,170363930,N,Y,41.2124182,-73.1948714
31,PAST SALE,June-12-2020,Single Family Residential,14 Lavelle Ave,New Fairfield,CT,6812,290000.0,2.0,1.5,New Fairfield,1409.0,6534.0,1968.0,493.0,206.0,19.0,Sold,,,http://www.redfin.com/CT/New-Fairfield/14-Lavelle-Ave-06812/home/107230363,Smart MLS,170238478,N,Y,41.5246689,-73.4808457
32,PAST SALE,October-28-2019,Single Family Residential,58 Chambers Rd,Danbury,CT,6811,360000.0,4.0,2.5,King St.,2192.0,146797.0,1971.0,721.0,164.0,,Sold,,,http://www.redfin.com/CT/Danbury/58-Chambers-Rd-06811/home/106988224,Smart MLS,170213828,N,Y,41.4255468,-73.4920196
33,PAST SALE,March-1-2019,Single Family Residential,13 Deer Run Trl,Weston,CT,6883,636000.0,3.0,2.0,Lower Weston,3304.0,56628.0,1957.0,962.0,192.0,,Sold,,,http://www.redfin.com/CT/Weston/13-Deer-Run-Trl-06883/home/107009800,Smart MLS,170148305,N,Y,41.1973018,-73.3489038
34,PAST SALE,November-1-2019,Condo/Co-op,111 Ledgebrook Dr #111,Norwalk,CT,6854,279000.0,2.0,2.0,Norwalk,1662.0,,1972.0,717.0,168.0,480.0,Sold,,,http://www.redfin.com/CT/Norwalk/111-Ledgebrook-Dr-06854/unit-111/home/144519743,Smart MLS,170190856,N,Y,41.1090199,-73.437692
35,PAST SALE,April-26-2018,Single Family Residential,2 Lyndenwood Dr,Brookfield,CT,6804,499000.0,4.0,2.5,Brookfield,3309.0,40075.0,1990.0,1271.0,151.0,,Sold,,,http://www.redfin.com/CT/Brookfield/2-Lyndenwood-Dr-06804/home/107302937,Smart MLS,170055575,N,Y,41.4775259,-73.3679914
36,PAST SALE,November-13-2020,Condo/Co-op,54 Whitmore Ln #3,Stamford,CT,6902,283000.0,2.0,1.5,West Side,1326.0,,1980.0,339.0,213.0,175.0,Sold,,,http://www.redfin.com/CT/Stamford/54-Whitmore-Ln-06902/unit-3/home/107112295,Smart MLS,170336873,N,Y,41.0502834,-73.5655007
37,PAST SALE,January-20-2021,Condo/Co-op,2435 Bedford St Unit 4A,Stamford,CT,6905,475000.0,2.0,2.5,Mid City,1600.0,,1993.0,271.0,297.0,457.0,Sold,,,http://www.redfin.com/CT/Stamford/2435-Bedford-St-06905/unit-4A/home/107113350,Smart MLS,170338704,N,Y,41.0694383,-73.5442748
38,PAST SALE,August-6-2019,Single Family Residential,25 Pell Mell Dr,Bethel,CT,6801,435000.0,4.0,2.5,Plumtrees,2568.0,40946.0,1972.0,804.0,169.0,,Sold,,,http://www.redfin.com/CT/Bethel/25-Pell-Mell-Dr-06801/home/107282501,Smart MLS,170199409,N,Y,41.3837869,-73.38503
39,PAST SALE,January-16-2019,Condo/Co-op,231 Lansdowne #231,Westport,CT,6880,820000.0,2.0,3.0,Greens Farms,2450.0,,1985.0,1006.0,335.0,502.0,Sold,,,http://www.redfin.com/CT/Westport/231-Lansdowne-06880/unit-231/home/147980448,Smart MLS,170140677,N,Y,41.135372,-73.3050441
40,PAST SALE,November-20-2020,Single Family Residential,140 Club Rd,Stamford,CT,6905,650000.0,4.0,3.5,Stamford,3693.0,24829.0,1959.0,332.0,176.0,,Sold,,,http://www.redfin.com/CT/Stamford/140-Club-Rd-06905/home/107098062,Smart MLS,170271046,N,Y,41.0995167,-73.535624
41,PAST SALE,March-2-2021,Multi-Family (2-4 Unit),19 Emerson St,Norwalk,CT,6855,545000.0,4.0,2.0,East Norwalk,1913.0,6098.0,1924.0,230.0,285.0,,Sold,,,http://www.redfin.com/CT/Norwalk/19-Emerson-St-06855/home/107812682,Smart MLS,170352102,N,Y,41.1033494,-73.4005937
42,PAST SALE,September-24-2021,Single Family Residential,10 Hickory Hl,Shelton,CT,6484,535000.0,3.0,3.5,Huntington,3230.0,12632.0,1997.0,24.0,166.0,58.0,Sold,,,http://www.redfin.com/CT/Shelton/10-Hickory-Hl-06484/home/107179845,Smart MLS,170426100,N,Y,41.3076214,-73.1159895
43,PAST SALE,November-20-2018,Condo/Co-op,28 3rd St #54,Stamford,CT,6905,422500.0,2.0,2.0,Mid City,1316.0,,1998.0,1063.0,321.0,250.0,Sold,,,http://www.redfin.com/CT/Stamford/28-3rd-St-06905/unit-54/home/107104944,Smart MLS,170042114,N,Y,41.0647577,-73.5421037
44,PAST SALE,December-21-2020,Condo/Co-op,12 Willard Rd #7,Norwalk,CT,6851,430000.0,2.0,2.5,Norwalk,1710.0,,2014.0,301.0,251.0,331.0,Sold,,,http://www.redfin.com/CT/Norwalk/12-Willard-Rd-06851/unit-7/home/109817419,Smart MLS,170336782,N,Y,41.1288619,-73.3883994
45,PAST SALE,August-29-2018,Condo/Co-op,2207 Larson Dr #2207,Danbury,CT,6810,305000.0,2.0,2.5,Mill Plain,1650.0,,2001.0,1146.0,185.0,345.0,Sold,,,http://www.redfin.com/CT/Danbury/Larson-Dr-06810/unit-2207/home/146215801,Smart MLS,170104993,N,Y,41.386396,-73.512885
46,PAST SALE,May-7-2018,Condo/Co-op,60 Harbour View Pl #60,Stratford,CT,6615,356000.0,2.0,2.5,Stratford,2361.0,,1986.0,1260.0,151.0,485.0,Sold,,,http://www.redfin.com/CT/Stratford/60-Harbour-View-Pl-06615/unit-60/home/145199607,Smart MLS,170063899,N,Y,41.1816131,-73.1272565
47,PAST SALE,June-18-2021,Single Family Residential,43 Indian Field Rd,Greenwich,CT,6830,1237500.0,4.0,4.0,Greenwich,2688.0,10454.0,1985.0,122.0,460.0,,Sold,,,http://www.redfin.com/CT/Greenwich/43-Indian-Field-Rd-06830/home/107012498,Smart MLS,170388633,N,Y,41.0337142,-73.6051652
48,PAST SALE,,Single Family Residential,55 High Ridge Rd,Easton,CT,6612,530000.0,4.0,2.5,,3009.0,64033.0,1949.0,,176.0,,,,,http://www.redfin.com/CT/Easton/55-High-Ridge-Rd-06612/home/107615217,,,N,Y,41.2434835,-73.2610326
49,PAST SALE,January-11-2019,Single Family Residential,21 Danbury Ave,Westport,CT,6880,1300000.0,3.0,2.0,Compo Beach,1669.0,9583.0,1930.0,1011.0,779.0,,Sold,,,http://www.redfin.com/CT/Westport/21-Danbury-Ave-06880/home/107263091,Smart MLS,170128226,N,Y,41.1080142,-73.3508594
50,PAST SALE,June-29-2021,Condo/Co-op,127 Greyrock Pl #804,Stamford,CT,6901,294000.0,1.0,1.0,Stamford,789.0,,1987.0,111.0,373.0,499.0,Sold,,,http://www.redfin.com/CT/Stamford/127-Greyrock-Pl-06901/unit-804/home/107114675,Smart MLS,170388293,N,Y,41.0544738,-73.5357647
51,PAST SALE,January-25-2021,Single Family Residential,30 Lynn Pl,Ridgefield,CT,6877,699000.0,4.0,3.0,North Ridgefield,3028.0,13503.0,1995.0,266.0,231.0,46.0,Sold,,,http://www.redfin.com/CT/Ridgefield/30-Lynn-Pl-06877/home/53644483,Smart MLS,170333821,N,Y,41.3748847,-73.5419511
52,PAST SALE,March-13-2020,Single Family Residential,21 Ridgewood Dr,Redding,CT,6896,478000.0,4.0,2.5,West Redding,2684.0,87120.0,1976.0,584.0,178.0,,Sold,,,http://www.redfin.com/CT/Redding/21-Ridgewood-Dr-06896/home/107079928,Smart MLS,170241929,N,Y,41.3276634,-73.3941934
53,PAST SALE,November-13-2020,Condo/Co-op,92 Grove St Unit D2,Stamford,CT,6901,225000.0,2.0,1.0,Glenbrook,976.0,,1924.0,339.0,231.0,527.0,Sold,,,http://www.redfin.com/CT/Stamford/92-Grove-St-06901/unit-D2/home/172750642,Smart MLS,170327109,N,Y,41.0568985,-73.5342265
54,PAST SALE,August-10-2020,Single Family Residential,5521 Congress St,Fairfield,CT,6824,525000.0,2.0,2.0,Fairfield,1928.0,91476.0,1970.0,434.0,272.0,,Sold,,,http://www.redfin.com/CT/Fairfield/5521-Congress-St-06824/home/107148357,Smart MLS,170301934,N,Y,41.2074443,-73.3093594
55,PAST SALE,October-5-2020,Single Family Residential,469 Old Stamford Rd,New Canaan,CT,6840,810000.0,4.0,2.5,New Canaan,3243.0,49658.0,1965.0,378.0,250.0,,Sold,,,http://www.redfin.com/CT/New-Canaan/469-Old-Stamford-Rd-06840/home/107241317,Smart MLS,170282896,N,Y,41.1237425,-73.4981835
56,PAST SALE,August-17-2020,Single Family Residential,46 Old Hawleyville Rd,Newtown,CT,6470,330000.0,3.0,2.0,Hawleyville,1951.0,357627.0,1939.0,427.0,169.0,,Sold,,,http://www.redfin.com/CT/Newtown/46-Old-Hawleyville-Rd-06470/home/107623930,Smart MLS,170269548,N,Y,41.4227406,-73.3701439
57,PAST SALE,May-31-2019,Single Family Residential,50 Abbey Rd,Easton,CT,6612,760000.0,4.0,5.0,Easton,5514.0,131115.0,2001.0,871.0,138.0,,Sold,,,http://www.redfin.com/CT/Easton/50-Abbey-Rd-06612/home/107614883,Smart MLS,170174092,N,Y,41.3195637,-73.2818112
58,PAST SALE,January-22-2021,Single Family Residential,50 Red Barn Rd,Trumbull,CT,6611,685000.0,5.0,5.0,Tashua,6361.0,118047.0,1995.0,269.0,108.0,,Sold,,,http://www.redfin.com/CT/Trumbull/50-Red-Barn-Rd-06611/home/107197811,Smart MLS,170314646,N,Y,41.2933565,-73.2564625
59,PAST SALE,August-17-2020,Single Family Residential,20A Williams Rd,New Fairfield,CT,6812,349900.0,4.0,1.5,Charcoal Ridge,1976.0,21780.0,1967.0,427.0,177.0,,Sold,,,http://www.redfin.com/CT/New-Fairfield/20A-Williams-Rd-06812/home/107231535,Smart MLS,170305327,N,Y,41.4555059,-73.4999036
60,PAST SALE,March-11-2021,Single Family Residential,186 Kellogg Dr,Wilton,CT,6897,899000.0,4.0,3.5,Wilton,3488.0,88862.0,1965.0,221.0,258.0,,Sold,,,http://www.redfin.com/CT/Wilton/186-Kellogg-Dr-06897/home/107152298,Smart MLS,170358298,N,Y,41.22784,-73.4910991
61,PAST SALE,March-17-2021,Single Family Residential,65 High Rock Rd,Newtown,CT,6482,471000.0,4.0,2.5,Sandy Hook,3241.0,119354.0,1977.0,215.0,145.0,,Sold,,,http://www.redfin.com/CT/Sandy-Hook/65-High-Rock-Rd-06482/home/107649836,Smart MLS,170364349,N,Y,41.3789096,-73.229838
62,PAST SALE,February-14-2020,Single Family Residential,135 Route 37 S,Sherman,CT,6784,350000.0,3.0,2.5,Sherman,2017.0,130680.0,1930.0,612.0,174.0,,Sold,,,http://www.redfin.com/CT/Sherman/135-CT-37-06784/home/107169448,Smart MLS,170241968,N,Y,41.5431835,-73.4980488
63,PAST SALE,March-31-2020,Condo/Co-op,115 Fillow St #13,Norwalk,CT,6850,240000.0,1.0,1.0,Spring Hill,780.0,,1986.0,566.0,308.0,199.0,Sold,,,http://www.redfin.com/CT/Norwalk/115-Fillow-St-06850/unit-13/home/107875274,Smart MLS,170273667,N,Y,41.1173031,-73.4372924
64,PAST SALE,July-23-2020,Condo/Co-op,8 Rowayton Woods Dr #8,Norwalk,CT,6854,240000.0,1.0,1.0,Brookside,751.0,,1975.0,452.0,320.0,317.0,Sold,,,http://www.redfin.com/CT/Norwalk/8-Rowayton-Woods-Dr-06854/unit-8/home/169490507,Smart MLS,170245474,N,Y,41.0812136,-73.4343225
65,PAST SALE,September-13-2021,Condo/Co-op,48 Warrington Round #48,Danbury,CT,6810,459999.0,3.0,2.5,Danbury,1600.0,,2012.0,35.0,287.0,432.0,Sold,,,http://www.redfin.com/CT/Danbury/48-Warrington-Round-06810/unit-48/home/146404658,Smart MLS,170405919,N,Y,41.3881487,-73.5354749
66,PAST SALE,June-29-2020,Single Family Residential,47 Fairmont Ave,Stamford,CT,6906,525000.0,3.0,1.5,Glenbrook,1748.0,10890.0,1928.0,476.0,300.0,,Sold,,,http://www.redfin.com/CT/Stamford/47-Fairmont-Ave-06906/home/107085955,Smart MLS,170291680,N,Y,41.0671305,-73.5134663
67,PAST SALE,June-23-2020,Condo/Co-op,50 Warrington Round #50,Danbury,CT,6810,372000.0,2.0,2.5,Danbury,1680.0,,2012.0,482.0,221.0,432.0,Sold,,,http://www.redfin.com/CT/Danbury/50-Warrington-Round-06810/unit-50/home/171408351,Smart MLS,170289607,N,Y,41.3881734,-73.5354098
68,PAST SALE,June-21-2019,Single Family Residential,160 Beaumont St,Fairfield,CT,6824,613000.0,4.0,2.5,Center,2122.0,5227.0,1983.0,850.0,289.0,,Sold,,,http://www.redfin.com/CT/Fairfield/160-Beaumont-St-06824/home/107147284,Smart MLS,170177345,N,Y,41.1385795,-73.2663311
69,PAST SALE,October-25-2019,Single Family Residential,5 Cloverleaf Dr,New Fairfield,CT,6812,380000.0,3.0,3.5,New Fairfield,1716.0,87120.0,1974.0,724.0,221.0,,Sold,,,http://www.redfin.com/CT/New-Fairfield/5-Cloverleaf-Dr-06812/home/107230014,Smart MLS,170228138,N,Y,41.4834706,-73.510613
70,PAST SALE,September-15-2020,Single Family Residential,121 4th St,Stamford,CT,6905,425000.0,3.0,2.0,Mid City,1564.0,6098.0,1952.0,398.0,272.0,,Sold,,,http://www.redfin.com/CT/Stamford/121-4th-St-06905/home/107084791,Smart MLS,170308473,N,Y,41.0657749,-73.5402601
71,PAST SALE,July-17-2020,Single Family Residential,1 White Oak Farm Rd,Newtown,CT,6470,430000.0,4.0,2.5,Newtown,2306.0,150282.0,1978.0,458.0,186.0,,Sold,,,http://www.redfin.com/CT/Newtown/1-White-Oak-Farm-Rd-06470/home/107649180,Smart MLS,170296850,N,Y,41.3644207,-73.3053518
72,PAST SALE,November-13-2020,Condo/Co-op,285 Bruce Park Ave Unit B,Greenwich,CT,6830,1100000.0,3.0,3.0,Greenwich,2205.0,,2014.0,339.0,499.0,425.0,Sold,,,http://www.redfin.com/CT/Greenwich/285-Bruce-Park-Ave-06830/unit-B/home/109665780,Smart MLS,170331130,N,Y,41.023625,-73.617815
73,PAST SALE,August-12-2019,Single Family Residential,18 Austin Dr,Easton,CT,6612,490000.0,4.0,3.0,Lower Easton,2615.0,43124.0,1949.0,798.0,187.0,,Sold,,,http://www.redfin.com/CT/Easton/18-Austin-Dr-06612/home/107612955,Smart MLS,170175684,N,Y,41.2374012,-73.2663311
74,PAST SALE,September-15-2021,Single Family Residential,70 Golfview Ter,Fairfield,CT,6825,835000.0,4.0,3.5,Stratfield,3586.0,24393.0,1958.0,33.0,233.0,,Sold,,,http://www.redfin.com/CT/Fairfield/70-Golfview-Ter-06825/home/107129814,Smart MLS,170419381,N,Y,41.2081837,-73.2366118
75,PAST SALE,November-16-2017,Single Family Residential,12 Spicewood Ln,Wilton,CT,6897,670000.0,4.0,3.0,Wilton,3473.0,43995.0,1966.0,1432.0,193.0,,Sold,,,http://www.redfin.com/CT/Wilton/12-Spicewood-Rd-06897/home/107149270,Smart MLS,99178526,N,Y,41.1815484,-73.4072702
76,PAST SALE,November-30-2017,Single Family Residential,33 Tanglewood Ct,Ridgefield,CT,6877,849885.0,5.0,4.5,South Ridgefield,5791.0,44866.0,1967.0,1418.0,147.0,,Sold,,,http://www.redfin.com/CT/Ridgefield/33-Tanglewood-Ct-06877/home/53648530,Smart MLS,99191646,N,Y,41.252173,-73.4949652
77,PAST SALE,January-25-2018,Single Family Residential,13 Douglas Dr,Danbury,CT,6811,360000.0,4.0,2.5,King St.,2077.0,47044.0,1972.0,1362.0,173.0,,Sold,,,http://www.redfin.com/CT/Danbury/13-Douglas-Dr-06811/home/106997382,Smart MLS,170006930,N,Y,41.4294074,-73.5023974
78,PAST SALE,September-1-2017,Single Family Residential,41 Old Colony Rd,Stamford,CT,6907,679000.0,3.0,3.0,Springdale,2475.0,37897.0,1955.0,1508.0,274.0,,Sold,,,http://www.redfin.com/CT/Stamford/41-Old-Colony-Rd-06907/home/107106373,Smart MLS,99187930,N,Y,41.1036895,-73.5200471
79,PAST SALE,,Condo/Co-op,311 Foxboro Dr,Norwalk,CT,6851,426000.0,2.0,2.5,,1304.0,,1991.0,,327.0,,,,,http://www.redfin.com/CT/Norwalk/311-Foxboro-Dr-06851/home/107852905,,,N,Y,41.1598518,-73.4168129
80,PAST SALE,January-25-2018,Single Family Residential,16 Blaine St,Danbury,CT,6810,183000.0,4.0,2.0,Danbury,1438.0,32234.0,1909.0,1362.0,127.0,,Sold,,,http://www.redfin.com/CT/Danbury/16-Blaine-St-06810/home/107003004,Smart MLS,99127411,N,Y,41.3953975,-73.4696847
81,PAST SALE,April-3-2017,Single Family Residential,12 Fox Run,Sherman,CT,6784,1417000.0,5.0,6.0,HUBBELL MTN FARM,6751.0,675615.0,1998.0,1659.0,210.0,,Sold,,,http://www.redfin.com/CT/Sherman/12-Fox-Run-06784/home/107170249,Smart MLS,F10187585,N,Y,41.569529,-73.478966
82,PAST SALE,August-11-2017,Condo/Co-op,1 Putnam Hl Unit 4K,Greenwich,CT,6830,350000.0,1.0,1.0,Greenwich,,,1956.0,1529.0,,,Sold,,,http://www.redfin.com/CT/Greenwich/1-Putnam-Hill-Rd-06830/unit-4-K/home/146893814,GMLS,99997,N,Y,41.0352234,-73.6175743
83,PAST SALE,June-19-2017,Condo/Co-op,11 Village Walk #11,Wilton,CT,6897,254000.0,2.0,2.0,Wilton,1206.0,,1973.0,1582.0,211.0,337.0,Sold,,,http://www.redfin.com/CT/Wilton/11-Village-Walk-06897/unit-11/home/148692387,Smart MLS,99179416,N,Y,41.1708396,-73.4125971
84,PAST SALE,July-21-2017,Single Family Residential,6 Carol St,Danbury,CT,6810,437000.0,3.0,3.0,Lake Waubeeka,1180.0,10018.0,1952.0,1550.0,370.0,3300.0,Sold,,,http://www.redfin.com/CT/Danbury/6-Carol-St-06810/home/106992919,Smart MLS,99179439,N,Y,41.3479546,-73.460628
85,PAST SALE,April-17-2017,Vacant Land,15 Newman Dr,Easton,CT,6612,150000.0,,,Lower Easton,,45302.0,,1645.0,,,Sold,,,http://www.redfin.com/CT/Easton/15-Newman-Dr-06612/home/144513911,Smart MLS,99142824,N,Y,41.2329284,-73.2611708
86,PAST SALE,March-27-2017,Single Family Residential,135 Dolphin Cove QUAY,Stamford,CT,6902,1225000.0,2.0,2.5,Waterside,2200.0,12196.0,1992.0,1666.0,557.0,2075.0,Sold,,,http://www.redfin.com/CT/Stamford/135-Dolphin-Cove-Quay-06902/home/107097895,Smart MLS,99137607,N,Y,41.0274422,-73.5485311
87,PAST SALE,September-12-2017,Single Family Residential,3 High Fields Dr,Danbury,CT,6811,490000.0,4.0,3.5,King St.,4561.0,40510.0,1988.0,1497.0,107.0,,Sold,,,http://www.redfin.com/CT/Danbury/3-High-Fields-Dr-06811/home/106992860,Smart MLS,99188905,N,Y,41.4173893,-73.5006492
88,PAST SALE,October-6-2017,Single Family Residential,16 Laurel Dr S,Sherman,CT,6784,730000.0,3.0,2.5,Sherman,1458.0,47916.0,2010.0,1473.0,501.0,1800.0,Sold,,,http://www.redfin.com/CT/Sherman/16-Laurel-Hill-Rd-S-06784/home/107169250,Smart MLS,99187636,N,Y,41.550628,-73.458148
89,PAST SALE,November-28-2016,Single Family Residential,17 Sullivan Dr,Redding,CT,6896,630000.0,4.0,3.5,Redding,3937.0,87120.0,1972.0,1785.0,160.0,,Sold,,,http://www.redfin.com/CT/Redding/17-Sullivan-Dr-06896/home/107079144,Smart MLS,99150720,N,Y,41.3099062,-73.3533464
90,PAST SALE,September-22-2017,Condo/Co-op,115 Fillow St #12,Norwalk,CT,6850,274000.0,2.0,1.5,West Norwalk,1460.0,,1986.0,1487.0,188.0,363.0,Sold,,,http://www.redfin.com/CT/Norwalk/115-Fillow-St-06850/unit-12/home/107875707,Smart MLS,99190434,N,Y,41.1173031,-73.4372924
91,PAST SALE,August-24-2017,Single Family Residential,10 Hedgerow Ln,Greenwich,CT,6831,2350000.0,6.0,5.5,old mill,8200.0,87120.0,1975.0,1516.0,287.0,,Sold,,,http://www.redfin.com/CT/Greenwich/10-Hedgerow-Ln-06831/home/107021423,Smart MLS,99166874,N,Y,41.0872943,-73.6497808
92,PAST SALE,,Single Family Residential,8 Starr St,Danbury,CT,6810,,3.0,1.0,,1144.0,7405.0,1928.0,,,,Sold,,,http://www.redfin.com/CT/Danbury/8-Starr-St-06810/home/106992527,Smart MLS,,N,Y,41.3897704,-73.4360915
93,PAST SALE,July-31-2017,Single Family Residential,21 Woodbury Dr,Danbury,CT,6811,252000.0,3.0,1.5,Stadley Rough,1482.0,27878.0,1968.0,1540.0,170.0,,Sold,,,http://www.redfin.com/CT/Danbury/21-Woodbury-Dr-06811/home/106995033,Smart MLS,99190173,N,Y,41.4246677,-73.4351247
94,PAST SALE,,Condo/Co-op,166 Old Brookfield Rd Unit 17B3,Danbury,CT,6811,152000.0,2.0,1.0,,1069.0,,1984.0,,142.0,,,,,http://www.redfin.com/CT/Danbury/166-Old-Brookfield-Rd-06811/unit-17B3/home/106987122,,,N,Y,41.4223064,-73.4240294
95,PAST SALE,May-23-2017,Single Family Residential,7 Judith Dr,Danbury,CT,6811,388000.0,4.0,2.5,King St.,4064.0,57934.0,1978.0,1609.0,95.0,,Sold,,,http://www.redfin.com/CT/Danbury/7-Judith-Dr-06811/home/106992428,Smart MLS,99173926,N,Y,41.4261075,-73.5069773
96,PAST SALE,November-8-2017,Single Family Residential,43 Jericho Rd N,Sherman,CT,6784,739000.0,4.0,4.5,Sherman,4032.0,120225.0,1960.0,1440.0,183.0,,Sold,,,http://www.redfin.com/CT/Sherman/43-Jericho-Rd-N-06784/home/107170328,Smart MLS,170005578,N,Y,41.5927564,-73.4923878
97,PAST SALE,April-3-2017,Single Family Residential,20 Ramapoo Hill Rd,Ridgefield,CT,6877,587500.0,3.0,2.0,Village Center,2714.0,10018.0,1964.0,1659.0,216.0,,Sold,,,http://www.redfin.com/CT/Ridgefield/20-Ramapoo-Hill-Rd-06877/home/53646673,Smart MLS,99167785,N,Y,41.289764,-73.5137884
98,PAST SALE,December-7-2017,Single Family Residential,1 Lakecrest Dr,Danbury,CT,6811,392500.0,5.0,2.5,Aunt Hack,2776.0,45302.0,1968.0,1411.0,141.0,,Sold,,,http://www.redfin.com/CT/Danbury/1-Lakecrest-Dr-06811/home/106993735,Smart MLS,170009823,N,Y,41.4092808,-73.5165708
99,PAST SALE,October-5-2017,Condo/Co-op,18 Keeler CL #18,Ridgefield,CT,6877,234000.0,2.0,2.0,Village Center,1372.0,,1970.0,1474.0,171.0,379.0,Sold,,,http://www.redfin.com/CT/Ridgefield/18-Keeler-Close-06877/unit-18/home/148642899,Smart MLS,99193096,N,Y,41.2872798,-73.4953036
100,PAST SALE,June-15-2017,Single Family Residential,65 Woodridge Circle Cir,New Canaan,CT,6840,1650000.0,4.0,2.5,New Canaan,4030.0,88426.0,1958.0,1586.0,409.0,,Sold,,,http://www.redfin.com/CT/New-Canaan/65-Woodridge-Cir-06840/home/107235810,Smart MLS,99172603,N,Y,41.1641407,-73.5284225
101,PAST SALE,December-15-2017,Single Family Residential,72 Treat Ave,Stamford,CT,6906,482000.0,3.0,1.5,Glenbrook,2171.0,4356.0,1945.0,1403.0,222.0,,Sold,,,http://www.redfin.com/CT/Stamford/72-Treat-Ave-06906/home/107086703,Smart MLS,170022428,N,Y,41.066299,-73.5274101
102,PAST SALE,August-1-2017,Condo/Co-op,24 Seaton Rd #4,Stamford,CT,6902,192500.0,2.0,1.0,Glenbrook,763.0,,1951.0,1539.0,252.0,460.0,Sold,,,http://www.redfin.com/CT/Stamford/24-Seaton-Rd-06902/unit-4/home/107117445,Smart MLS,99185005,N,Y,41.0571637,-73.5182572
103,PAST SALE,June-27-2017,Condo/Co-op,91 Strawberry Hill Ave #428,Stamford,CT,6902,180000.0,2.0,1.0,Mid City,875.0,,1959.0,1574.0,206.0,540.0,Sold,,,http://www.redfin.com/CT/Stamford/91-Strawberry-Hill-Ave-06902/unit-428/home/107082395,Smart MLS,99162895,N,Y,41.0634641,-73.532656
104,PAST SALE,June-30-2017,Condo/Co-op,91 Strawberry Hill Ave #541,Stamford,CT,6902,205000.0,2.0,1.0,Mid City,875.0,,1959.0,1571.0,234.0,540.0,Sold,,,http://www.redfin.com/CT/Stamford/91-Strawberry-Hill-Ave-06902/unit-541/home/107100489,Smart MLS,99184407,N,Y,41.0634641,-73.532656
105,PAST SALE,,Condo/Co-op,65 Winding Ridge Way,Danbury,CT,6810,798000.0,3.0,3.5,,2553.0,,2016.0,,313.0,,,,,http://www.redfin.com/CT/Danbury/65-Winding-Ridge-Way-06810/home/110022922,,,N,Y,41.3904694,-73.5272371
106,PAST SALE,October-17-2017,Condo/Co-op,20 Weed Hill Ave Unit K,Stamford,CT,6907,315000.0,3.0,2.5,Springdale,2373.0,,1969.0,1462.0,133.0,450.0,Sold,,,http://www.redfin.com/CT/Stamford/20-Weed-Hill-Ave-06907/unit-K/home/107113193,Smart MLS,170006226,N,Y,41.0976102,-73.5215171
107,PAST SALE,September-8-2017,Condo/Co-op,39 Glenbrook Rd Unit 5Z,Stamford,CT,6902,180000.0,1.0,1.0,Glenbrook,872.0,,1958.0,1501.0,206.0,479.0,Sold,,,http://www.redfin.com/CT/Stamford/39-Glenbrook-Rd-06902/unit-5Z/home/107112819,Smart MLS,99177827,N,Y,41.0564635,-73.5285772
108,PAST SALE,,Condo/Co-op,126 Warrington Round #126,Danbury,CT,6810,,,,,,,,,,,Sold,,,http://www.redfin.com/CT/Danbury/126-Warrington-Round-06810/unit-126/home/175474254,Smart MLS,,N,Y,41.3893254,-73.5355563
109,PAST SALE,,Single Family Residential,72 Brinckerhoff Ave,Stamford,CT,6905,847000.0,3.0,3.5,,3197.0,14810.0,1940.0,,265.0,,,,,http://www.redfin.com/CT/Stamford/72-Brinckerhoff-Ave-06905/home/107118954,,,N,Y,41.0854464,-73.5360152
110,PAST SALE,April-19-2017,Single Family Residential,86 Eden Rd,Stamford,CT,6907,440000.0,3.0,1.5,Newfield,1083.0,64904.0,1929.0,1643.0,406.0,,Sold,,,http://www.redfin.com/CT/Stamford/86-Eden-Rd-06907/home/107098237,Smart MLS,99168030,N,Y,41.1165124,-73.5296946
111,PAST SALE,June-22-2017,Single Family Residential,142 Saint Charles Ave,Stamford,CT,6907,500000.0,3.0,2.0,Springdale,2354.0,19166.0,1960.0,1579.0,212.0,,Sold,,,http://www.redfin.com/CT/Stamford/142-St-Charles-Ave-06907/home/107116295,Smart MLS,99173373,N,Y,41.0861095,-73.527134
112,PAST SALE,December-19-2016,Single Family Residential,162 Peaceable St,Ridgefield,CT,6877,600000.0,4.0,2.5,Village Center,5435.0,45738.0,1968.0,1764.0,110.0,,Sold,,,http://www.redfin.com/CT/Ridgefield/162-Peaceable-St-06877/home/53651278,Smart MLS,99159037,N,Y,41.2755137,-73.5146398
113,PAST SALE,May-19-2017,Single Family Residential,57 Turtle Back Ln E,New Canaan,CT,6840,1275000.0,4.0,4.0,New Canaan,3652.0,101059.0,1960.0,1613.0,349.0,,Sold,,,http://www.redfin.com/CT/New-Canaan/57-Turtle-Back-Ln-E-06840/home/107241945,Smart MLS,99170198,N,Y,41.1783487,-73.5240162
114,PAST SALE,August-24-2017,Condo/Co-op,255 Strawberry Hill Ave Unit D8,Stamford,CT,6902,360000.0,2.0,2.0,Mid City,1115.0,,1977.0,1516.0,323.0,303.0,Sold,,,http://www.redfin.com/CT/Stamford/255-Strawberry-Hill-Ave-06902/unit-D8/home/107110963,Smart MLS,99187853,N,Y,41.0690302,-73.5337604
115,PAST SALE,,Condo/Co-op,127 Greyrock Pl #1110,Stamford,CT,6901,310000.0,1.0,1.0,,807.0,,1987.0,,384.0,,,,,http://www.redfin.com/CT/Stamford/127-Greyrock-Pl-06901/unit-1110/home/107092814,,,N,Y,41.0544738,-73.5357647
116,PAST SALE,June-22-2017,Single Family Residential,138 Fayerweather Ter,Bridgeport,CT,6605,327400.0,3.0,2.0,Black Rock,1358.0,6098.0,1922.0,1579.0,241.0,,Sold,,,http://www.redfin.com/CT/Bridgeport/138-Fayerweather-Ter-06605/home/107036428,Smart MLS,99183256,N,Y,41.1530127,-73.2267045
117,PAST SALE,May-17-2017,Multi-Family (2-4 Unit),716 Atlantic St,Bridgeport,CT,6604,155000.0,6.0,3.0,West End,3727.0,4791.0,1912.0,1615.0,42.0,,Sold,,,http://www.redfin.com/CT/Bridgeport/716-Atlantic-St-06604/home/107036475,Smart MLS,99166860,N,Y,41.1646876,-73.1963808
118,PAST SALE,,Condo/Co-op,1610 Fairfield Ave #206,Bridgeport,CT,6605,55000.0,2.0,1.0,,907.0,,1987.0,,61.0,,,,,http://www.redfin.com/CT/Bridgeport/1610-Fairfield-Ave-06605/unit-206/home/107048189,,,N,Y,41.1708745,-73.213087
119,PAST SALE,December-12-2017,Multi-Family (2-4 Unit),36 Monroe St,Bridgeport,CT,6605,275000.0,3.0,3.0,Black Rock,2955.0,8276.0,1916.0,1406.0,93.0,,Sold,,,http://www.redfin.com/CT/Bridgeport/36-Monroe-St-06605/home/107051084,Smart MLS,170015268,N,Y,41.1598297,-73.2222804
120,PAST SALE,October-16-2017,Single Family Residential,35 Thurston St,Bridgeport,CT,6605,176000.0,2.0,2.0,Black Rock,1382.0,4791.0,1937.0,1463.0,127.0,,Sold,,,http://www.redfin.com/CT/Bridgeport/35-Thurston-St-06605/home/107052663,Smart MLS,99194538,N,Y,41.1587065,-73.2213129
121,PAST SALE,May-1-2017,Single Family Residential,218 Middlebrook Dr,Fairfield,CT,6824,625000.0,3.0,3.0,University,1642.0,15681.0,1942.0,1631.0,381.0,,Sold,,,http://www.redfin.com/CT/Fairfield/218-Middlebrook-Dr-06824/home/107125097,Smart MLS,99173206,N,Y,41.1703225,-73.2679782
122,PAST SALE,,Condo/Co-op,942 S Pine Creek Rd,Fairfield,CT,6824,758200.0,3.0,3.5,,2320.0,,1988.0,,327.0,,,,,http://www.redfin.com/CT/Fairfield/942-S-Pine-Creek-Rd-06824/home/107126150,,,N,Y,41.127305,-73.2684784
123,PAST SALE,,Single Family Residential,67 Howard St,Fairfield,CT,6824,1290500.0,4.0,3.5,,3954.0,6098.0,2016.0,,326.0,,,,,http://www.redfin.com/CT/Fairfield/67-Howard-St-06824/home/107129085,,,N,Y,41.1350693,-73.2545821
124,PAST SALE,March-22-2017,Single Family Residential,195 Fairfield Beach Rd,Fairfield,CT,6824,3450000.0,5.0,5.5,Beach,9502.0,23086.0,1983.0,1671.0,363.0,,Sold,,,http://www.redfin.com/CT/Fairfield/195-Fairfield-Beach-Rd-06824/home/107132622,Smart MLS,99166014,N,Y,41.1365284,-73.2406437
125,PAST SALE,,Condo/Co-op,655 Reef Rd,Fairfield,CT,6824,675000.0,3.0,2.5,,2836.0,,2003.0,,238.0,,,,,http://www.redfin.com/CT/Fairfield/655-Reef-Rd-06824/home/107141290,,,N,Y,41.1336081,-73.2501653
126,PAST SALE,,Condo/Co-op,7 Padanaram Rd Unit J212,Danbury,CT,6811,97500.0,1.0,1.0,,604.0,,1976.0,,161.0,,,,,http://www.redfin.com/CT/Danbury/7-Padanaram-Rd-06811/unit-J212/home/106982170,,,N,Y,41.4172307,-73.4590629
127,PAST SALE,December-1-2017,Multi-Family (2-4 Unit),90 Franklin St,Danbury,CT,6810,277000.0,4.0,2.0,City Center,1500.0,6969.0,1900.0,1417.0,185.0,,Sold,,,http://www.redfin.com/CT/Danbury/90-Franklin-St-06810/home/106988398,Smart MLS,99194962,N,Y,41.400378,-73.4666965
128,PAST SALE,May-18-2017,Condo/Co-op,86 Strawberry Hill Ave #3,Stamford,CT,6902,165500.0,2.0,1.0,Stamford,900.0,,1952.0,1614.0,184.0,594.0,Sold,,,http://www.redfin.com/CT/Stamford/86-Strawberry-Hill-Ave-06902/unit-3/home/144525469,Smart MLS,99165822,N,Y,41.0635599,-73.5331416
129,PAST SALE,June-1-2017,Condo/Co-op,249 Hamilton Ave #17,Stamford,CT,6902,343000.0,2.0,2.5,Glenbrook,1476.0,,1970.0,1600.0,232.0,256.0,Sold,,,http://www.redfin.com/CT/Stamford/249-Hamilton-Ave-06902/unit-17/home/107116503,Smart MLS,99165590,N,Y,41.0630978,-73.5121886
130,PAST SALE,,Single Family Residential,12 New Light Dr,Danbury,CT,6810,,4.0,3.0,,1587.0,104544.0,1970.0,,,,Sold,,,http://www.redfin.com/CT/Danbury/12-New-Light-Dr-06810/home/107005675,Smart MLS,,N,Y,41.335375,-73.4265155
131,PAST SALE,,Single Family Residential,15 Hillcrest Ave,Stamford,CT,6902,775000.0,3.0,1.5,,1747.0,5227.0,1922.0,,444.0,,,,,http://www.redfin.com/CT/Stamford/15-Hillcrest-Ave-06902/home/107117524,,,N,Y,41.0588999,-73.5331622
132,PAST SALE,April-19-2017,Single Family Residential,60 Robin Hood Rd,Stamford,CT,6907,540000.0,3.0,3.0,Springdale,3324.0,20037.0,1957.0,1643.0,162.0,,Sold,,,http://www.redfin.com/CT/Stamford/60-Robin-Hood-Rd-06907/home/107098304,Smart MLS,99172734,N,Y,41.1064018,-73.5134663
133,PAST SALE,December-7-2016,Multi-Family (2-4 Unit),43 Ellsworth Ave,Danbury,CT,6810,285000.0,5.0,2.0,Germantown,1861.0,6969.0,1905.0,1776.0,153.0,,Sold,,,http://www.redfin.com/CT/Danbury/43-Ellsworth-Ave-06810/home/107004962,Smart MLS,99140065,N,Y,41.403865,-73.4513293
134,PAST SALE,,Condo/Co-op,3002 Hancock Dr,Danbury,CT,6811,258000.0,2.0,1.5,,1288.0,,1998.0,,200.0,,,,,http://www.redfin.com/CT/Danbury/3002-Hancock-Dr-06811/home/106987962,,,N,Y,41.4328763,-73.4218079
135,PAST SALE,May-12-2017,Single Family Residential,61 Spring Lake Rd,Sherman,CT,6784,430000.0,3.0,3.0,Atchison Cove,3682.0,117612.0,1950.0,1620.0,117.0,,Sold,,,http://www.redfin.com/CT/Sherman/61-Spring-Lake-Rd-06784/home/107170322,Smart MLS,F10146823,N,Y,41.6004132,-73.5163195
136,PAST SALE,February-15-2017,Single Family Residential,5 Marianna Farm Dr,Danbury,CT,6811,530000.0,4.0,2.5,Aunt Hack,3800.0,81457.0,1999.0,1706.0,139.0,,Sold,,,http://www.redfin.com/CT/DANBURY/5-MARIANA-FARMS-DR-06811/home/107002215,Smart MLS,99165287,N,Y,41.397803,-73.527536
137,PAST SALE,November-18-2016,Single Family Residential,292 Compo Rd S,Westport,CT,6880,2790000.0,5.0,5.5,Compo South,6079.0,39204.0,1920.0,1795.0,459.0,,Sold,,,http://www.redfin.com/CT/Westport/292-Compo-Rd-S-06880/home/107261395,Smart MLS,99134486,N,Y,41.1100202,-73.353807
138,PAST SALE,June-13-2017,Condo/Co-op,255 Strawberry Hill Ave Unit B10,Stamford,CT,6902,314500.0,2.0,1.0,Mid City,1169.0,,1977.0,1588.0,269.0,317.0,Sold,,,http://www.redfin.com/CT/Stamford/255-Strawberry-Hill-Ave-06902/unit-B10/home/107093150,Smart MLS,99176557,N,Y,41.0690302,-73.5337604
139,PAST SALE,June-16-2017,Single Family Residential,60 Cady St,Stamford,CT,6907,665000.0,4.0,2.5,Springdale,3807.0,7405.0,1925.0,1585.0,175.0,,Sold,,,http://www.redfin.com/CT/Stamford/60-Cady-St-06907/home/107096583,Smart MLS,99180264,N,Y,41.0862255,-73.5247871
140,PAST SALE,May-3-2017,Single Family Residential,13 1/2 Washington Ave,Danbury,CT,6810,265000.0,4.0,2.0,Wooster Heights,1805.0,9583.0,1963.0,1629.0,147.0,,Sold,,,http://www.redfin.com/CT/Danbury/13-1-2-Washington-Ave-06810/home/148607490,Smart MLS,99173007,N,Y,41.3819701,-73.4552882
141,PAST SALE,March-22-2017,Single Family Residential,31 Mitchell St,Stamford,CT,6902,515000.0,3.0,1.5,Shippan,1785.0,6098.0,1929.0,1671.0,289.0,,Sold,,,http://www.redfin.com/CT/Stamford/31-Mitchell-St-06902/home/107085367,Smart MLS,99172137,N,Y,41.035366,-73.5289632
142,PAST SALE,July-5-2017,Single Family Residential,163 Knox Rd,Stamford,CT,6907,460000.0,3.0,2.0,Springdale,1765.0,13068.0,1943.0,1566.0,261.0,,Sold,,,http://www.redfin.com/CT/Stamford/163-Knox-Rd-06907/home/107093841,Smart MLS,99174312,N,Y,41.0981283,-73.5265357
143,PAST SALE,November-14-2017,Single Family Residential,93 Aspen Ledges Rd,Ridgefield,CT,6877,647500.0,4.0,3.0,North Ridgefield,3734.0,47916.0,1961.0,1434.0,173.0,,Sold,,,http://www.redfin.com/CT/Ridgefield/93-Aspen-Ledges-Rd-06877/home/53646046,Smart MLS,99192742,N,Y,41.3326374,-73.50845
144,PAST SALE,September-14-2017,Single Family Residential,11 Hayestown Hts,Danbury,CT,6811,239000.0,3.0,1.5,Danbury,2062.0,16988.0,1946.0,1495.0,116.0,,Sold,,,http://www.redfin.com/CT/Danbury/11-Hayestown-Hts-06811/home/106984199,Smart MLS,99193541,N,Y,41.4205412,-73.4587867
145,PAST SALE,June-27-2017,Condo/Co-op,421 Glenbrook Rd #7,Stamford,CT,6906,325000.0,2.0,2.0,Glenbrook,1451.0,,1974.0,1574.0,224.0,345.0,Sold,,,http://www.redfin.com/CT/Stamford/421-Glenbrook-Rd-06906/unit-7/home/107083341,Smart MLS,99178509,N,Y,41.0677523,-73.5209851
146,PAST SALE,,Single Family Residential,2 Hastings Ln,Stamford,CT,6905,360000.0,3.0,1.5,,1719.0,11761.0,1967.0,,209.0,,,,,http://www.redfin.com/CT/Stamford/2-Hastings-Ln-06905/home/107082609,,,N,Y,41.0848983,-73.5332542
147,PAST SALE,March-31-2017,Condo/Co-op,1 Beaver Brook Rd #22,Danbury,CT,6810,125000.0,2.0,1.5,Danbury,1256.0,,1984.0,1662.0,100.0,283.0,Sold,,,http://www.redfin.com/CT/Danbury/1-Beaver-Brook-Rd-06810/unit-22/home/106993624,Smart MLS,99165313,N,Y,41.4000004,-73.4299738
148,PAST SALE,,Single Family Residential,178 Middle River Rd,Danbury,CT,6811,465000.0,4.0,2.5,,2905.0,376358.0,1977.0,,160.0,,,,,http://www.redfin.com/CT/Danbury/178-Middle-River-Rd-06811/home/106999007,,,N,Y,41.421646,-73.5199091
149,PAST SALE,June-28-2017,Single Family Residential,15 Bridle Trl,Ridgefield,CT,6877,620000.0,3.0,3.0,Ridgefield,2326.0,68824.0,1975.0,1573.0,267.0,,Sold,,,http://www.redfin.com/CT/Ridgefield/15-Bridle-Trl-06877/home/53644845,Smart MLS,99184132,N,Y,41.3427001,-73.5328401
150,PAST SALE,November-21-2017,Condo/Co-op,1 Beaver Brook Rd #56,Danbury,CT,6810,133500.0,2.0,1.5,Danbury,1256.0,,1984.0,1427.0,106.0,283.0,Sold,,,http://www.redfin.com/CT/Danbury/1-Beaver-Brook-Rd-06810/unit-56/home/106998765,Smart MLS,170016848,N,Y,41.4000004,-73.4299738
151,PAST SALE,,Single Family Residential,25 Topstone Dr,Danbury,CT,6810,,2.0,1.0,,936.0,15246.0,1955.0,,,,Sold,,,http://www.redfin.com/CT/Danbury/25-Topstone-Dr-06810/home/106983353,Smart MLS,,N,Y,41.3968826,-73.4256868
152,PAST SALE,,Single Family Residential,34 CT-37,Sherman,CT,6784,200000.0,3.0,2.0,,1344.0,218671.0,1986.0,,149.0,,,,,http://www.redfin.com/CT/Sherman/34-CT-37-06784/home/107170413,,,N,Y,41.5833447,-73.4792297
153,PAST SALE,April-24-2017,Single Family Residential,14 Hillcrest Ct,Ridgefield,CT,6877,651000.0,4.0,3.0,Ridgefield,3470.0,93218.0,1970.0,1638.0,188.0,,Sold,,,http://www.redfin.com/CT/Ridgefield/14-Hillcrest-Ct-06877/home/53651491,Smart MLS,99163706,N,Y,41.3097396,-73.524672
154,PAST SALE,September-27-2017,Single Family Residential,41 Regan Rd,Ridgefield,CT,6877,541000.0,5.0,3.0,Ridgefield,2922.0,113256.0,1960.0,1482.0,185.0,,Sold,,,http://www.redfin.com/CT/Ridgefield/41-Regan-Rd-06877/home/53650925,Smart MLS,99190892,N,Y,41.3371673,-73.5273641
155,PAST SALE,,Condo/Co-op,63 Stetson Pl,Danbury,CT,6811,229900.0,2.0,2.5,,1498.0,,2006.0,,153.0,,,,,http://www.redfin.com/CT/Danbury/63-Stetson-Pl-06811/home/107000282,,,N,Y,41.4274564,-73.4726328
156,PAST SALE,August-11-2017,Single Family Residential,87 Neds Mountain Rd,Ridgefield,CT,6877,597000.0,3.0,2.5,North Ridgefield,2174.0,131115.0,1984.0,1529.0,275.0,,Sold,,,http://www.redfin.com/CT/Ridgefield/87-Ned-s-Mountain-Rd-06877/home/53645907,Smart MLS,99179624,N,Y,41.3527371,-73.5188228
157,PAST SALE,July-6-2017,Single Family Residential,31 Green Ln,Ridgefield,CT,6877,825000.0,3.0,3.5,West Mountain Estate,3464.0,89733.0,1988.0,1565.0,238.0,950.0,Sold,,,http://www.redfin.com/CT/Ridgefield/88-Green-Ln-06877/home/53645598,Smart MLS,99169336,N,Y,41.304843,-73.522507
158,PAST SALE,April-14-2017,Condo/Co-op,15 Scuppo Rd #902,Danbury,CT,6811,225000.0,2.0,1.5,Mill Plain,1650.0,,2006.0,1648.0,136.0,381.0,Sold,,,http://www.redfin.com/CT/Danbury/15-Scuppo-Rd-06811/unit-902/home/106997529,Smart MLS,99172521,N,Y,41.392527,-73.482348
159,PAST SALE,August-22-2017,Single Family Residential,171 Farmingville Rd,Ridgefield,CT,6877,695000.0,4.0,2.5,South Ridgefield,3013.0,87120.0,1978.0,1518.0,231.0,,Sold,,,http://www.redfin.com/CT/Ridgefield/171-Farmingville-Rd-06877/home/53652560,Smart MLS,99183125,N,Y,41.2959578,-73.4782576
160,PAST SALE,May-22-2017,Single Family Residential,295 Seaside Ave,Bridgeport,CT,6605,260000.0,2.0,1.0,Black Rock,1292.0,5662.0,1940.0,1610.0,201.0,,Sold,,,http://www.redfin.com/CT/Bridgeport/295-Seaside-Ave-06605/home/107040756,Smart MLS,99173367,N,Y,41.1520583,-73.2302988
161,PAST SALE,May-16-2017,Single Family Residential,2149 Fairfield Beach Rd,Fairfield,CT,6824,750000.0,2.0,1.5,Beach,1560.0,2178.0,1988.0,1616.0,481.0,,Sold,,,http://www.redfin.com/CT/Fairfield/2149-Fairfield-Beach-Rd-06824/home/107127775,Smart MLS,99175362,N,Y,41.118232,-73.2632096
162,PAST SALE,September-6-2017,Single Family Residential,185 Dixon St,Bridgeport,CT,6604,233000.0,3.0,2.0,Brooklawn,1606.0,9583.0,1936.0,1503.0,145.0,,Sold,,,http://www.redfin.com/CT/Bridgeport/185-Dixon-St-06604/home/107058128,Smart MLS,99190171,N,Y,41.1858073,-73.2131561
163,PAST SALE,July-7-2017,Single Family Residential,151 Riverview Cir,Fairfield,CT,6824,592500.0,3.0,2.0,University,2005.0,9583.0,1952.0,1564.0,296.0,,Sold,,,http://www.redfin.com/CT/Fairfield/151-Riverview-Cir-06824/home/107127770,Smart MLS,99179708,N,Y,41.1692567,-73.2722708
164,PAST SALE,September-15-2017,Condo/Co-op,245 Unquowa Rd #22,Fairfield,CT,6824,370000.0,3.0,2.0,Center,1650.0,,1964.0,1494.0,224.0,347.0,Sold,,,http://www.redfin.com/CT/Fairfield/245-Unquowa-Rd-06824/unit-22/home/107123614,Smart MLS,99193581,N,Y,41.1440414,-73.2588778
165,PAST SALE,,Condo/Co-op,50 Stone Ridge Way Unit 1F,Fairfield,CT,6825,545000.0,3.0,3.0,,1742.0,,2005.0,,313.0,,,,,http://www.redfin.com/CT/Fairfield/50-Stone-Ridge-Way-06825/unit-1F/home/107130394,,,N,Y,41.161559,-73.236647
166,PAST SALE,June-30-2017,Single Family Residential,1355 Fairfield Beach Rd,Fairfield,CT,6824,1433450.0,4.0,3.5,Beach,2611.0,4356.0,1995.0,1571.0,549.0,,Sold,,,http://www.redfin.com/CT/Fairfield/1355-Fairfield-Beach-Rd-06824/home/107148461,Smart MLS,99172289,N,Y,41.1253845,-73.2526214
167,PAST SALE,September-18-2017,Multi-Family (2-4 Unit),157 Helen St,Bridgeport,CT,6608,162500.0,5.0,2.0,East Side,3864.0,3920.0,1912.0,1491.0,42.0,,Sold,,,http://www.redfin.com/CT/Bridgeport/157-Helen-St-06608/home/107046549,Smart MLS,99174844,N,Y,41.1885346,-73.1747761
168,PAST SALE,,Condo/Co-op,195 Louisiana Ave Unit A,Bridgeport,CT,6610,25000.0,1.0,1.0,,650.0,,1949.0,,38.0,,,,,http://www.redfin.com/CT/Bridgeport/195-Louisiana-Ave-06610/unit-A/home/107063140,,,N,Y,41.2096865,-73.1752533
169,PAST SALE,,Condo/Co-op,73 Kingsbury Rd #1,Bridgeport,CT,6610,67000.0,2.0,1.0,,682.0,,1981.0,,98.0,,,,,http://www.redfin.com/CT/Bridgeport/73-Kingsbury-Rd-06610/unit-1/home/107064514,,,N,Y,41.2048491,-73.1776783
170,PAST SALE,March-16-2017,Condo/Co-op,157 Louisiana Ave #157,Bridgeport,CT,6610,50255.0,2.0,1.0,Beardsley Park,1304.0,,1949.0,1677.0,39.0,210.0,Sold,,,http://www.redfin.com/CT/Bridgeport/157-Louisiana-Ave-06610/unit-157/home/144530271,Smart MLS,99170257,N,Y,41.2097688,-73.176151
171,PAST SALE,December-1-2017,Condo/Co-op,120 Huntington Tpke #901,Bridgeport,CT,6610,39500.0,1.0,1.0,Beardsley Park,411.0,,1972.0,1417.0,96.0,171.0,Sold,,,http://www.redfin.com/CT/Bridgeport/120-Huntington-Tpke-06610/unit-901/home/107040680,Smart MLS,170013286,N,Y,41.211408,-73.1770289
172,PAST SALE,November-6-2017,Multi-Family (2-4 Unit),117 Hallett St,Bridgeport,CT,6608,194500.0,6.0,4.0,Bridgeport,2624.0,22215.0,1999.0,1442.0,74.0,,Sold,,,http://www.redfin.com/CT/Bridgeport/117-Hallett-St-06608/home/107045156,Smart MLS,99183181,N,Y,41.1830942,-73.1765144
173,PAST SALE,April-19-2017,Single Family Residential,129 Hastings St,Bridgeport,CT,6610,118000.0,3.0,2.5,Mill Hill,1267.0,9583.0,1957.0,1643.0,93.0,,Sold,,,http://www.redfin.com/CT/Bridgeport/129-Hastings-St-06610/home/107034691,Smart MLS,99140849,N,Y,41.2010327,-73.1752716
174,PAST SALE,June-16-2017,Single Family Residential,615 Monroe Tpke,Monroe,CT,6468,305500.0,4.0,1.5,Monroe,2284.0,46173.0,1941.0,1585.0,134.0,,Sold,,,http://www.redfin.com/CT/Monroe/615-Monroe-Tpke-06468/home/107075514,Smart MLS,99174578,N,Y,41.3233183,-73.2112054
175,PAST SALE,May-31-2017,Single Family Residential,12 Fair Oaks Dr,Shelton,CT,6484,319900.0,3.0,1.5,Shelton,1456.0,40510.0,1960.0,1601.0,220.0,,Sold,,,http://www.redfin.com/CT/Shelton/12-Fairoaks-Dr-06484/home/107185649,Smart MLS,99176645,N,Y,41.2869871,-73.1918642
176,PAST SALE,May-26-2017,Single Family Residential,6296 Main St,Trumbull,CT,6611,317000.0,3.0,1.5,Long Hill,2117.0,9147.0,1926.0,1606.0,150.0,,Sold,,,http://www.redfin.com/CT/Trumbull/6296-Main-St-06611/home/107200430,Smart MLS,B10212487,N,Y,41.2705299,-73.2259211
177,PAST SALE,November-30-2017,Single Family Residential,21 Hyde Ter,Trumbull,CT,6611,387500.0,3.0,1.5,Long Hill,1857.0,11761.0,1948.0,1418.0,209.0,,Sold,,,http://www.redfin.com/CT/Trumbull/21-Hyde-Ter-06611/home/107202169,Smart MLS,170017064,N,Y,41.2673794,-73.2228928
178,PAST SALE,January-29-2018,Single Family Residential,92 Flint St,Trumbull,CT,6611,225000.0,2.0,1.0,Town Hall,816.0,7405.0,1952.0,1358.0,276.0,,Sold,,,http://www.redfin.com/CT/Trumbull/92-Flint-St-06611/home/107203340,Smart MLS,170033788,N,Y,41.253131,-73.2182714
179,PAST SALE,June-14-2017,Single Family Residential,362 Putting Green Rd,Trumbull,CT,6611,535000.0,5.0,2.5,Hillandale,2970.0,34848.0,1978.0,1587.0,180.0,,Sold,,,http://www.redfin.com/CT/Trumbull/362-Putting-Green-Rd-06611/home/107206813,Smart MLS,99176420,N,Y,41.2663142,-73.2037893
180,PAST SALE,May-12-2017,Single Family Residential,101 Tanglewood Rd,Trumbull,CT,6611,260000.0,3.0,1.0,Tashua,1220.0,22651.0,1956.0,1620.0,213.0,,Sold,,,http://www.redfin.com/CT/Trumbull/101-Tanglewood-Rd-06611/home/107196026,Smart MLS,99182641,N,Y,41.2780161,-73.236704
181,PAST SALE,July-14-2017,Single Family Residential,87 Lake Ave,Trumbull,CT,6611,375000.0,3.0,2.0,Long Hill,1536.0,14810.0,1949.0,1557.0,244.0,,Sold,,,http://www.redfin.com/CT/Trumbull/87-Lake-Ave-06611/home/107201005,Smart MLS,99178623,N,Y,41.2621854,-73.2308518
182,PAST SALE,January-24-2018,Single Family Residential,441 Judd Rd,Easton,CT,6612,418500.0,4.0,2.0,no,2065.0,130680.0,1955.0,1363.0,203.0,,Sold,,,http://www.redfin.com/CT/Easton/441-Judd-Rd-06612/home/107612157,Smart MLS,99174185,N,Y,41.32122,-73.2931194
183,PAST SALE,March-22-2017,Condo/Co-op,1209 Arganese Pl #1209,Trumbull,CT,6611,179900.0,2.0,2.0,Tashua,1104.0,,2005.0,1671.0,163.0,310.0,Sold,,,http://www.redfin.com/CT/Trumbull/1209-Arganese-Pl-06611/unit-1209/home/144522326,Smart MLS,99172444,N,Y,41.2811623,-73.2321638
184,PAST SALE,August-31-2017,Single Family Residential,4581 Madison Ave,Easton,CT,6612,440000.0,4.0,2.0,Lower Easton,3738.0,227383.0,1963.0,1509.0,118.0,,Sold,,,http://www.redfin.com/CT/Easton/4581-Madison-Ave-06612/home/144539110,Smart MLS,99183751,N,Y,41.250664,-73.246408
185,PAST SALE,May-16-2017,Single Family Residential,24 Settlers Ridge Dr,Trumbull,CT,6611,890000.0,4.0,4.0,Hillandale,4943.0,54014.0,2005.0,1616.0,180.0,,Sold,,,http://www.redfin.com/CT/Trumbull/24-Settlers-Ridge-Dr-06611/home/107198966,Smart MLS,99174217,N,Y,41.2936208,-73.2139913
186,PAST SALE,April-6-2017,Single Family Residential,20 Fieldstone Dr,Easton,CT,6612,725000.0,8.0,6.0,Easton,5797.0,224334.0,1949.0,1656.0,125.0,,Sold,,,http://www.redfin.com/CT/Easton/20-Fieldstone-Dr-06612/home/107615429,Smart MLS,99136198,N,Y,41.3107465,-73.2768317
187,PAST SALE,July-26-2017,Single Family Residential,110 Midland Rd,Trumbull,CT,6611,470000.0,4.0,2.5,Hillandale,2695.0,43560.0,1970.0,1545.0,174.0,,Sold,,,http://www.redfin.com/CT/Trumbull/110-Midland-Rd-06611/home/107196226,Smart MLS,99184078,N,Y,41.2585224,-73.1893984
188,PAST SALE,August-10-2017,Single Family Residential,23 Old Newtown Rd,Monroe,CT,6468,370300.0,3.0,3.0,Stepney,2238.0,108900.0,1790.0,1530.0,165.0,,Sold,,,http://www.redfin.com/CT/Monroe/23-Old-Newtown-Rd-06468/home/107074071,Smart MLS,99187819,N,Y,41.3073539,-73.2531077
189,PAST SALE,,Single Family Residential,79 Highridge Dr,Monroe,CT,6468,274000.0,4.0,1.5,,1824.0,45738.0,1965.0,,150.0,,,,,http://www.redfin.com/CT/Monroe/79-Highridge-Dr-06468/home/107069559,,,N,Y,41.3116047,-73.2073033
190,PAST SALE,June-15-2017,Single Family Residential,460 Moose Hill Rd,Monroe,CT,6468,245000.0,3.0,1.5,Monroe Center,1792.0,41817.0,1958.0,1586.0,137.0,,Sold,,,http://www.redfin.com/CT/Monroe/460-Moose-Hill-Rd-06468/home/107070818,Smart MLS,99174526,N,Y,41.319442,-73.2049069
191,PAST SALE,October-23-2017,Single Family Residential,280 Stanley Rd,Monroe,CT,6468,265000.0,3.0,1.0,Stepney,1770.0,21780.0,1957.0,1456.0,150.0,,Sold,,,http://www.redfin.com/CT/Monroe/280-Stanley-Rd-06468/home/107071436,Smart MLS,170001778,N,Y,41.3239929,-73.2703169
192,PAST SALE,June-16-2017,Single Family Residential,20 Marsh Pond Ln,Monroe,CT,6468,395000.0,2.0,2.5,Great Oak Farm,2125.0,10890.0,1995.0,1585.0,186.0,140.0,Sold,,,http://www.redfin.com/CT/Monroe/20-Marsh-Pond-Ln-06468/unit-000020/home/107074022,Smart MLS,B10202568,N,Y,41.3250018,-73.246641
193,PAST SALE,,Single Family Residential,264 Putting Green Rd,Trumbull,CT,6611,459900.0,4.0,2.5,,2932.0,34848.0,1978.0,,157.0,,,,,http://www.redfin.com/CT/Trumbull/264-Putting-Green-Rd-06611/home/107200639,,,N,Y,41.2638701,-73.2072803
194,PAST SALE,April-13-2017,Single Family Residential,27 Doe Hollow Dr,Trumbull,CT,6611,632900.0,4.0,3.0,Hillandale,3764.0,35283.0,1986.0,1649.0,168.0,,Sold,,,http://www.redfin.com/CT/Trumbull/27-Doe-Hollow-Dr-06611/home/107204258,Smart MLS,99169582,N,Y,41.2690133,-73.18608
195,PAST SALE,March-31-2017,Single Family Residential,181 Lake Ave,Trumbull,CT,6611,500000.0,4.0,2.5,Trumbull,2204.0,41382.0,1965.0,1662.0,227.0,,Sold,,,http://www.redfin.com/CT/Trumbull/181-Lake-Ave-06611/home/107207213,Smart MLS,V10201267,N,Y,41.2603932,-73.2382707
196,PAST SALE,June-29-2017,Single Family Residential,22 Sally Ann Dr,Trumbull,CT,6611,437500.0,4.0,3.5,Long Hill,2472.0,16552.0,1954.0,1572.0,177.0,,Sold,,,http://www.redfin.com/CT/Trumbull/22-Sally-Ann-Dr-06611/home/107208267,Smart MLS,B10210289,N,Y,41.2626248,-73.2355432
197,PAST SALE,September-29-2017,Single Family Residential,75 Honeysuckle Hill Ln,Easton,CT,6612,1300000.0,6.0,5.5,Aspetuck,5364.0,474368.0,1979.0,1480.0,242.0,,Sold,,,http://www.redfin.com/CT/Easton/75-Honeysuckle-Hill-Ln-06612/home/107613017,Smart MLS,99168072,N,Y,41.2562226,-73.3176955
198,PAST SALE,March-31-2017,Single Family Residential,8 Settlers Ridge Dr,Trumbull,CT,6611,985000.0,6.0,6.0,Trumbull,5688.0,35283.0,2005.0,1662.0,173.0,,Sold,,,http://www.redfin.com/CT/Trumbull/8-Settlers-Ridge-Rd-06611/home/107199892,Smart MLS,B10182600,N,Y,41.2937666,-73.2125429
199,PAST SALE,July-6-2017,Single Family Residential,60 Herrmann Ln,Easton,CT,6612,730000.0,4.0,3.5,Easton,6285.0,136342.0,1999.0,1565.0,116.0,,Sold,,,http://www.redfin.com/CT/Easton/60-Herrmann-Ln-06612/home/107615327,Smart MLS,99164396,N,Y,41.3255055,-73.3004688
200,PAST SALE,June-23-2017,Single Family Residential,10 Lakeview Dr,Easton,CT,6612,690000.0,4.0,2.5,Lower Easton,3039.0,81021.0,1996.0,1578.0,227.0,,Sold,,,http://www.redfin.com/CT/Easton/10-Lake-View-Dr-06612/home/107612327,Smart MLS,99175463,N,Y,41.2456443,-73.2596504
201,PAST SALE,July-21-2017,Single Family Residential,26 Fairway Ln,Trumbull,CT,6611,550000.0,4.0,3.5,Hillandale,3904.0,45302.0,1981.0,1550.0,141.0,,Sold,,,http://www.redfin.com/CT/Trumbull/26-Fairway-Ln-06611/home/107202416,Smart MLS,99181227,N,Y,41.2666054,-73.1945834
202,PAST SALE,October-23-2017,Single Family Residential,33 Valley View Rd,Trumbull,CT,6611,397000.0,3.0,2.5,Trumbull,2971.0,14374.0,1955.0,1456.0,134.0,,Sold,,,http://www.redfin.com/CT/Trumbull/33-Valley-View-Rd-06611/home/107207956,Smart MLS,170003571,N,Y,41.2520367,-73.2070893
203,PAST SALE,June-16-2017,Single Family Residential,10 Sweetbrier Trl,Easton,CT,6612,686500.0,5.0,3.5,Easton,4695.0,137649.0,1976.0,1585.0,146.0,,Sold,,,http://www.redfin.com/CT/Easton/10-Sweetbrier-Trl-06612/home/107612812,Smart MLS,99180142,N,Y,41.2827627,-73.3087606
204,PAST SALE,November-2-2017,Single Family Residential,36 Silver Hill Rd,Easton,CT,6612,1000000.0,5.0,5.0,Easton Center,7016.0,130680.0,1760.0,1446.0,143.0,,Sold,,,http://www.redfin.com/CT/Easton/36-Silver-Hill-Rd-06612/home/107615290,Smart MLS,99192371,N,Y,41.2762231,-73.3055821
205,PAST SALE,August-24-2017,Single Family Residential,148 Far Mill St,Shelton,CT,6484,478500.0,4.0,2.5,Huntington,4092.0,90604.0,1998.0,1516.0,117.0,,Sold,,,http://www.redfin.com/CT/Shelton/148-Far-Mill-St-06484/home/107191617,Smart MLS,99190832,N,Y,41.299313,-73.183015
206,PAST SALE,March-28-2017,Single Family Residential,69 Walnut St,Monroe,CT,6468,285000.0,3.0,1.5,Monroe,1938.0,70131.0,1970.0,1665.0,147.0,,Sold,,,http://www.redfin.com/CT/Monroe/69-Walnut-St-06468/home/107067962,Smart MLS,99165210,N,Y,41.325885,-73.1911728
207,PAST SALE,,Condo/Co-op,61 Stillmeadow Cir,Monroe,CT,6468,266500.0,2.0,2.5,,1600.0,,1983.0,,167.0,,,,,http://www.redfin.com/CT/Monroe/61-Stillmeadow-Cir-06468/home/107071139,,,N,Y,41.3374588,-73.2588906
208,PAST SALE,December-15-2017,Condo/Co-op,10 Wrabel Cir,Monroe,CT,6468,229000.0,1.0,2.0,Upper Stepney,1471.0,,1987.0,1403.0,156.0,283.0,Sold,,,http://www.redfin.com/CT/Monroe/10-Wrabel-Cir-06468/home/107071474,Smart MLS,99186909,N,Y,41.339317,-73.2501423
209,PAST SALE,,Condo/Co-op,10 Edgehill Cir,Monroe,CT,6468,223000.0,1.0,2.0,,1443.0,,1985.0,,155.0,,,,,http://www.redfin.com/CT/Monroe/10-Edgehill-Cir-06468/home/107074730,,,N,Y,41.3381863,-73.254464
210,PAST SALE,January-12-2018,Condo/Co-op,201 Windgate Cir Unit E,Monroe,CT,6468,149000.0,1.0,1.0,Stepney,983.0,,1988.0,1375.0,152.0,269.0,Sold,,,http://www.redfin.com/CT/Monroe/201-Windgate-Cir-06468/unit-E/home/107074717,Smart MLS,170022989,N,Y,41.338568,-73.267854
211,PAST SALE,August-21-2017,Single Family Residential,16 Evergreen Rd,Newtown,CT,6482,325000.0,3.0,3.5,Sandy Hook,2329.0,25700.0,1954.0,1519.0,140.0,,Sold,,,http://www.redfin.com/CT/Sandy-Hook/16-Evergreen-Rd-06482/home/107630193,Smart MLS,99188856,N,Y,41.4225573,-73.2935127
212,PAST SALE,November-20-2017,Single Family Residential,3 Fawnwood Rd,Newtown,CT,6482,470000.0,4.0,2.5,Sandy Hook,2822.0,45738.0,1993.0,1428.0,167.0,,Sold,,,http://www.redfin.com/CT/Sandy-Hook/3-Fawnwood-Rd-06482/home/107630553,Smart MLS,170019818,N,Y,41.4132823,-73.2507693
213,PAST SALE,May-16-2017,Single Family Residential,24 Horseshoe Ridge Rd,Newtown,CT,6482,480000.0,4.0,3.5,Sandy Hook,6173.0,89733.0,2000.0,1616.0,78.0,,Sold,,,http://www.redfin.com/CT/Sandy-Hook/24-Horseshoe-Ridge-Rd-06482/home/107633038,Smart MLS,99155667,N,Y,41.4341853,-73.3047759
214,PAST SALE,December-18-2017,Single Family Residential,74 Lakeview Ter,Newtown,CT,6482,142000.0,1.0,1.0,Sandy Hook,512.0,33541.0,1956.0,1400.0,277.0,,Sold,,,http://www.redfin.com/CT/Sandy-Hook/74-Lakeview-Ter-06482/home/107633127,Smart MLS,170015019,N,Y,41.4274927,-73.2299302
215,PAST SALE,July-14-2017,Single Family Residential,26 Sugar St,Newtown,CT,6470,400000.0,3.0,2.0,Newtown,1890.0,18295.0,1926.0,1557.0,212.0,,Sold,,,http://www.redfin.com/CT/Newtown/26-Sugar-St-06470/home/107633483,Smart MLS,99185542,N,Y,41.4063908,-73.3099582
216,PAST SALE,December-14-2017,Single Family Residential,17 Serenity Ln,Newtown,CT,6482,340000.0,4.0,2.5,Sandy Hook,2100.0,52707.0,1985.0,1404.0,162.0,,Sold,,,http://www.redfin.com/CT/Sandy-Hook/17-Serenity-Ln-06482/home/107635533,Smart MLS,170019700,N,Y,41.3805389,-73.2109441
217,PAST SALE,December-12-2017,Single Family Residential,54 Appleblossom Ln,Newtown,CT,6470,320000.0,3.0,2.0,Newtown,1429.0,28314.0,1966.0,1406.0,224.0,,Sold,,,http://www.redfin.com/CT/Newtown/54-Appleblossom-Ln-06470/home/107641526,Smart MLS,170016947,N,Y,41.3858175,-73.2894126
218,PAST SALE,June-9-2017,Single Family Residential,22 Cedar Hill Rd,Newtown,CT,6470,358500.0,3.0,2.5,Newtown,1718.0,30056.0,1952.0,1592.0,209.0,,Sold,,,http://www.redfin.com/CT/Newtown/22-Cedar-Hill-Rd-06470/home/107641541,Smart MLS,F10197677,N,Y,41.3853725,-73.2882148
219,PAST SALE,June-23-2017,Single Family Residential,9 Bari Dr,Newtown,CT,6470,320000.0,4.0,1.5,Newtown,2450.0,43560.0,1965.0,1578.0,131.0,,Sold,,,http://www.redfin.com/CT/Newtown/9-Bari-Dr-06470/home/107643547,Smart MLS,99183138,N,Y,41.3796823,-73.2942498
220,PAST SALE,November-21-2017,Single Family Residential,272 Berkshire Rd,Newtown,CT,6482,245000.0,3.0,1.5,Sandy Hook,2404.0,87120.0,1739.0,1427.0,102.0,,Sold,,,http://www.redfin.com/CT/Sandy-Hook/272-Berkshire-Rd-06482/home/107643749,Smart MLS,170013097,N,Y,41.3848996,-73.2057364
221,PAST SALE,,Single Family Residential,6 Osborne Hill Rd Ext,Sandy Hook,CT,6482,215000.0,3.0,1.5,,1868.0,47916.0,1934.0,,115.0,,,,,http://www.redfin.com/CT/Sandy-Hook/6-Osborne-Hill-Rd-Ext-06482/home/107646677,,,N,Y,41.4028806,-73.2200687
222,PAST SALE,,Single Family Residential,57 Platts Hill Rd,Newtown,CT,6470,200000.0,4.0,2.5,,3165.0,401623.0,2017.0,,63.0,,,,,http://www.redfin.com/CT/Newtown/57-Platts-Hill-Rd-06470/home/107649288,,,N,Y,41.3629325,-73.3032226
223,PAST SALE,,Condo/Co-op,42 Watkins Dr,Sandy Hook,CT,6482,417000.0,2.0,2.0,,2445.0,,2007.0,,171.0,,,,,http://www.redfin.com/CT/Sandy-Hook/42-Watkins-Dr-06482/home/107651471,,,N,Y,41.4128934,-73.2785018
224,PAST SALE,July-28-2017,Single Family Residential,54 Charter Ridge Dr,Newtown,CT,6482,539000.0,4.0,2.5,Sandy Hook,3364.0,87991.0,2002.0,1543.0,160.0,,Sold,,,http://www.redfin.com/CT/Sandy-Hook/54-Charter-Ridge-Dr-06482/home/107651645,Smart MLS,99181321,N,Y,41.4130867,-73.226981
225,PAST SALE,August-31-2017,Condo/Co-op,40 Elizabeth Cir #40,Newtown,CT,6482,227000.0,2.0,2.5,Sandy Hook,1850.0,,1998.0,1509.0,123.0,300.0,Sold,,,http://www.redfin.com/CT/Sandy-Hook/40-Elizabeth-Cir-06482/unit-40/home/148632311,Smart MLS,99192598,N,Y,41.4222535,-73.2854327
226,PAST SALE,June-26-2017,Condo/Co-op,24 Saint George Pl #24,Newtown,CT,6482,267000.0,2.0,2.0,Sandy Hook,2235.0,,1996.0,1575.0,119.0,289.0,Sold,,,http://www.redfin.com/CT/Sandy-Hook/24-Saint-George-Pl-06482/unit-24/home/148605095,Smart MLS,99179211,N,Y,41.4215878,-73.2887882
227,PAST SALE,August-31-2017,Single Family Residential,26 Turkey Roost Rd,Newtown,CT,6482,324500.0,3.0,1.5,Sandy Hook,2039.0,98010.0,1975.0,1509.0,159.0,,Sold,,,http://www.redfin.com/CT/Sandy-Hook/26-Turkey-Roost-Rd-06482/home/107630332,Smart MLS,99153578,N,Y,41.382108,-73.265352
228,PAST SALE,April-17-2017,Single Family Residential,55 Boulevard Rd,Newtown,CT,6470,249000.0,3.0,2.0,Newtown,1320.0,33105.0,1873.0,1645.0,189.0,,Sold,,,http://www.redfin.com/CT/Newtown/55-The-Blvd-06470/home/107624138,Smart MLS,99176845,N,Y,41.4245602,-73.3087606
229,PAST SALE,August-1-2017,Single Family Residential,7 Ridge Rd,Newtown,CT,6470,383000.0,3.0,2.5,Borough,2204.0,44431.0,1960.0,1539.0,174.0,,Sold,,,http://www.redfin.com/CT/Newtown/7-Ridge-Rd-06470/home/107630974,Smart MLS,99183675,N,Y,41.3965195,-73.3096358
230,PAST SALE,April-6-2017,Single Family Residential,13 Antler Pine Rd,Newtown,CT,6482,328000.0,4.0,2.5,Sandy Hook,2722.0,91476.0,1984.0,1656.0,120.0,,Sold,,,http://www.redfin.com/CT/Sandy-Hook/13-Antler-Pine-Rd-06482/home/107641559,Smart MLS,99160099,N,Y,41.4377757,-73.2814887
231,PAST SALE,September-20-2017,Single Family Residential,47 Great Ring Rd,Newtown,CT,6482,495000.0,3.0,2.5,Sandy Hook,3049.0,89733.0,1715.0,1489.0,162.0,,Sold,,,http://www.redfin.com/CT/Sandy-Hook/47-Great-Ring-Rd-06482/home/107638051,Smart MLS,99193965,N,Y,41.3792583,-73.2217277
232,PAST SALE,September-19-2017,Single Family Residential,90 Haley Ln,Newtown,CT,6482,242000.0,2.0,2.0,Sandy Hook,1442.0,,2001.0,1490.0,168.0,263.0,Sold,,,http://www.redfin.com/CT/Sandy-Hook/90-Haley-Ln-06482/home/107635590,Smart MLS,F10238130,N,Y,41.4217992,-73.2875975
233,PAST SALE,November-30-2017,Single Family Residential,32 Russett Rd,Newtown,CT,6482,620000.0,4.0,3.5,Sandy Hook,4140.0,98445.0,2004.0,1418.0,150.0,,Sold,,,http://www.redfin.com/CT/Sandy-Hook/32-Russett-Rd-06482/home/107649256,Smart MLS,99188043,N,Y,41.4157027,-73.2232253
234,PAST SALE,,Condo/Co-op,27 Watkins Dr,Sandy Hook,CT,6482,450000.0,3.0,2.5,,2394.0,,2008.0,,188.0,,,,,http://www.redfin.com/CT/Sandy-Hook/27-Watkins-Dr-06482/home/107638125,,,N,Y,41.4130589,-73.2782648
235,PAST SALE,April-20-2017,Single Family Residential,19 Hannah Ln,Monroe,CT,6468,464500.0,5.0,3.0,Stepney,3455.0,92347.0,1982.0,1642.0,134.0,,Sold,,,http://www.redfin.com/CT/Monroe/19-Hannah-Ln-06468/home/107074468,Smart MLS,99147811,N,Y,41.3271628,-73.246104
236,PAST SALE,August-18-2017,Single Family Residential,30 River Dr,Monroe,CT,6468,375500.0,4.0,2.5,Monroe,2470.0,43560.0,1977.0,1522.0,152.0,,Sold,,,http://www.redfin.com/CT/Monroe/30-River-Rd-06468/home/107068149,Smart MLS,99186168,N,Y,41.3469116,-73.2175
237,PAST SALE,June-16-2017,Single Family Residential,71 Riverside Rd,Newtown,CT,6482,462500.0,5.0,4.0,Sandy Hook,3143.0,102801.0,1780.0,1585.0,147.0,,Sold,,,http://www.redfin.com/CT/Sandy-Hook/71-Riverside-Rd-06482/home/107630932,Smart MLS,99153064,N,Y,41.4237117,-73.2644882
238,PAST SALE,October-30-2017,Single Family Residential,18 Lake Dr,Newtown,CT,6482,80000.0,2.0,1.0,Sandy Hook,816.0,20473.0,1954.0,1449.0,98.0,,Sold,,,http://www.redfin.com/CT/Sandy-Hook/18-Lake-Dr-06482/home/107641304,Smart MLS,99186229,N,Y,41.435585,-73.247898
239,PAST SALE,September-6-2017,Single Family Residential,15 Village Green Ln,Monroe,CT,6468,570000.0,4.0,2.5,Monroe Center,4172.0,43995.0,1996.0,1503.0,137.0,,Sold,,,http://www.redfin.com/CT/Monroe/15-Village-Green-Ln-06468/home/107067050,Smart MLS,99181299,N,Y,41.3336893,-73.2096998
240,PAST SALE,,Single Family Residential,22 Mt Nebo Rd,Newtown,CT,6470,650100.0,5.0,6.0,,3136.0,174240.0,1935.0,,207.0,,,,,http://www.redfin.com/CT/Newtown/22-Mt-Nebo-Rd-06470/home/107638045,,,N,Y,41.3647977,-73.32038
241,PAST SALE,May-30-2017,Single Family Residential,22 Nearbrook Dr,Newtown,CT,6470,420000.0,4.0,2.5,Newtown,2909.0,33105.0,2005.0,1602.0,144.0,,Sold,,,http://www.redfin.com/CT/Newtown/22-Nearbrook-Dr-06470/home/107623742,Smart MLS,B10206241,N,Y,41.3842521,-73.268174
242,PAST SALE,December-23-2016,Single Family Residential,40 Algonquin Trl,Newtown,CT,6482,165000.0,1.0,2.0,The Lake,1383.0,9147.0,1945.0,1760.0,119.0,,Sold,,,http://www.redfin.com/CT/Sandy-Hook/40-Algonquin-Trl-06482/home/107627643,Smart MLS,99152047,N,Y,41.42601,-73.21749
243,PAST SALE,August-10-2017,Single Family Residential,8 Valley Field Rd S,Newtown,CT,6482,336000.0,3.0,2.5,Sandy Hook,2489.0,87120.0,1973.0,1530.0,135.0,,Sold,,,http://www.redfin.com/CT/Sandy-Hook/8-Valley-Field-Rd-S-06482/home/107638687,Smart MLS,99187247,N,Y,41.4308672,-73.2936048
244,PAST SALE,August-28-2017,Single Family Residential,189 Jockey Hollow Rd,Monroe,CT,6468,350000.0,4.0,3.0,Upper Stepney,2442.0,43995.0,1981.0,1512.0,143.0,,Sold,,,http://www.redfin.com/CT/Monroe/189-Jockey-Hollow-Rd-06468/home/107074678,Smart MLS,99192547,N,Y,41.3392284,-73.2419109
245,PAST SALE,July-31-2017,Single Family Residential,66 Mile Hill Rd S,Newtown,CT,6470,340000.0,4.0,2.5,Newtown,2127.0,118918.0,1985.0,1540.0,160.0,,Sold,,,http://www.redfin.com/CT/Newtown/66-Mile-Hill-Rd-S-06470/home/107641753,Smart MLS,99189138,N,Y,41.3888114,-73.2767895
246,PAST SALE,August-7-2017,Single Family Residential,4 Anthony Ridge Rd,Newtown,CT,6470,545000.0,4.0,2.5,Newtown,3000.0,166399.0,2016.0,1533.0,182.0,,Sold,,,http://www.redfin.com/CT/Newtown/4-Anthony-Ridge-Rd-06470/home/107623992,Smart MLS,99166761,N,Y,41.4336617,-73.3129881
247,PAST SALE,October-31-2017,Single Family Residential,20 Old Weston Rd,Weston,CT,6883,765000.0,5.0,4.0,Lower Weston,4683.0,87120.0,2013.0,1448.0,163.0,,Sold,,,http://www.redfin.com/CT/Weston/20-Old-Weston-Rd-06883/home/107006020,Smart MLS,99165016,N,Y,41.1894198,-73.3731031
248,PAST SALE,June-15-2017,Single Family Residential,23 Old Stage Coach Rd,Weston,CT,6883,1142500.0,4.0,4.5,Lower Weston,4312.0,94960.0,1956.0,1586.0,265.0,,Sold,,,http://www.redfin.com/CT/Weston/23-Old-Stage-Coach-Rd-06883/home/107006652,Smart MLS,99163124,N,Y,41.2308939,-73.3410545
249,PAST SALE,November-20-2017,Single Family Residential,117 Davis Hill Rd,Weston,CT,6883,360000.0,7.0,4.5,Weston,4213.0,87120.0,1969.0,1428.0,85.0,,Sold,,,http://www.redfin.com/CT/Weston/117-Davis-Hill-Rd-06883/home/107010087,Smart MLS,99192143,N,Y,41.2381179,-73.3485151
250,PAST SALE,January-26-2018,Single Family Residential,18 Fox Run Rd,Redding,CT,6896,353000.0,3.0,1.5,West Redding,1728.0,93218.0,1965.0,1361.0,204.0,,Sold,,,http://www.redfin.com/CT/Redding/18-Fox-Run-Rd-06896/home/107078951,Smart MLS,99180802,N,Y,41.2914204,-73.4126114
251,PAST SALE,August-1-2017,Single Family Residential,32 Limekiln Rd,Redding,CT,6896,425000.0,3.0,2.5,Redding,2016.0,43560.0,1992.0,1539.0,211.0,,Sold,,,http://www.redfin.com/CT/Redding/32-Limekiln-Rd-06896/home/107080389,Smart MLS,99188288,N,Y,41.3316429,-73.4133133
252,PAST SALE,May-19-2017,Single Family Residential,16 Sullivan Dr,Redding,CT,6896,599500.0,5.0,2.5,Redding,2700.0,98010.0,1973.0,1613.0,222.0,,Sold,,,http://www.redfin.com/CT/Redding/16-Sullivan-Dr-06896/home/107081899,Smart MLS,99181583,N,Y,41.3091872,-73.3538991
253,PAST SALE,April-11-2017,Single Family Residential,31 Heather Ln,Wilton,CT,6897,498150.0,5.0,2.5,Wilton,2743.0,47916.0,1954.0,1651.0,182.0,,Sold,,,http://www.redfin.com/CT/Wilton/31-Heather-Ln-06897/home/107150877,Smart MLS,99165990,N,Y,41.1860352,-73.3994656
254,PAST SALE,December-4-2017,Single Family Residential,24 Woods Way,Redding,CT,6896,470000.0,3.0,2.5,Georgetown,2172.0,,2001.0,1414.0,216.0,600.0,Sold,,,http://www.redfin.com/CT/Redding/24-Woods-Way-06896/home/107078272,Smart MLS,99170636,N,Y,41.2612245,-73.4251804
255,PAST SALE,November-8-2017,Single Family Residential,278 Ruane St,Fairfield,CT,6824,590000.0,3.0,3.5,Center,1751.0,8712.0,1939.0,1440.0,337.0,,Sold,,,http://www.redfin.com/CT/Fairfield/278-Ruane-St-06824/home/107129545,Smart MLS,170011562,N,Y,41.1372105,-73.2622766
256,PAST SALE,August-30-2017,Single Family Residential,161 Colonial Dr,Fairfield,CT,6824,2080000.0,5.0,4.5,Beach,4848.0,16552.0,2008.0,1510.0,429.0,,Sold,,,http://www.redfin.com/CT/Fairfield/161-Colonial-Dr-06824/home/107148818,Smart MLS,99168938,N,Y,41.1416236,-73.2405746
257,PAST SALE,October-31-2017,Condo/Co-op,83 Ferry Ct #83,Stratford,CT,6615,180000.0,2.0,1.5,Stratford,1260.0,,1981.0,1448.0,143.0,352.0,Sold,,,http://www.redfin.com/CT/Stratford/83-Ferry-Ct-06615/home/107218329,Smart MLS,99163425,N,Y,41.1985093,-73.1171879
258,PAST SALE,July-19-2017,Condo/Co-op,164 Flanders Ave #164,Bridgeport,CT,6604,37500.0,2.0,1.0,South End,700.0,,1918.0,1552.0,54.0,374.0,Sold,,,http://www.redfin.com/CT/Bridgeport/164-Flanders-St-06604/unit-164/home/172895295,Smart MLS,99164500,N,Y,41.1652641,-73.2000258
259,PAST SALE,August-7-2017,Single Family Residential,111 Old Post Rd,Fairfield,CT,6890,604000.0,3.0,1.5,Beach,1537.0,9147.0,1953.0,1533.0,393.0,,Sold,,,http://www.redfin.com/CT/Fairfield/111-Old-Post-Rd-06824/home/107134140,Smart MLS,99189199,N,Y,41.1477864,-73.2436273
260,PAST SALE,October-23-2017,Single Family Residential,139 Fairview Avenue Ext,Bridgeport,CT,6602,157000.0,4.0,1.5,North End,1664.0,4356.0,1955.0,1456.0,94.0,,Sold,,,http://www.redfin.com/CT/Bridgeport/139-Fairview-Avenue-Ext-06606/home/107056524,Smart MLS,170011099,N,Y,41.2042334,-73.1953669
261,PAST SALE,,Condo/Co-op,7 Dean St Unit 3-305,Danbury,CT,6810,135000.0,1.0,1.5,,599.0,,1990.0,,225.0,,,,,http://www.redfin.com/CT/Danbury/7-Dean-St-06810/unit-3-305/home/106994770,,,N,Y,41.4083001,-73.4470915
262,PAST SALE,August-15-2017,Single Family Residential,124 Limestone Rd,Ridgefield,CT,6877,585000.0,4.0,2.5,Ridgefield,3460.0,57063.0,1963.0,1525.0,169.0,,Sold,,,http://www.redfin.com/CT/Ridgefield/124-Limestone-Rd-06877/home/53652617,Smart MLS,99183952,N,Y,41.3156006,-73.4885677
263,PAST SALE,,Single Family Residential,9 Spur Ln,Sherman,CT,6784,247500.0,3.0,2.5,,1856.0,20473.0,1960.0,,133.0,,,,,http://www.redfin.com/CT/Sherman/9-Spur-Ln-06784/home/107169389,,,N,Y,41.5718481,-73.4893961
264,PAST SALE,,Condo/Co-op,114 Warrington Round,Danbury,CT,6810,450000.0,3.0,2.5,,2117.0,,2013.0,,213.0,,,,,http://www.redfin.com/CT/Danbury/114-Warrington-Round-06810/home/106993430,,,N,Y,41.3896763,-73.5342668
265,PAST SALE,June-15-2017,Condo/Co-op,20 Rowsley St #5,Bridgeport,CT,6605,78000.0,2.0,1.0,Black Rock,750.0,,1918.0,1586.0,104.0,415.0,Sold,,,http://www.redfin.com/CT/Bridgeport/20-Rowsley-St-06605/unit-5/home/144512735,Smart MLS,99179733,N,Y,41.1574519,-73.2249657
266,PAST SALE,September-7-2017,Single Family Residential,163 Paul Pl,Fairfield,CT,6824,435000.0,3.0,2.0,Beach,2150.0,6969.0,1941.0,1502.0,202.0,,Sold,,,http://www.redfin.com/CT/Fairfield/163-Paul-Pl-06824/home/107130284,Smart MLS,99173219,N,Y,41.1352893,-73.2596504
267,PAST SALE,October-10-2017,Single Family Residential,507 Huntington Rd,Stratford,CT,6614,185000.0,3.0,1.5,North End,1707.0,6098.0,1920.0,1469.0,108.0,,Sold,,,http://www.redfin.com/CT/Stratford/507-Huntington-Rd-06614/home/107217129,Smart MLS,99190071,N,Y,41.2138173,-73.1327246
268,PAST SALE,September-27-2017,Single Family Residential,1375 S Pine Creek Rd,Fairfield,CT,6824,478000.0,2.0,2.0,Beach,840.0,2613.0,1997.0,1482.0,569.0,,Sold,,,http://www.redfin.com/CT/Fairfield/1375-S-Pine-Creek-Rd-06824/home/107127738,Smart MLS,99187677,N,Y,41.1220004,-73.2701436
269,PAST SALE,June-27-2017,Single Family Residential,182 Woods End Rd,Fairfield,CT,6824,665000.0,4.0,2.5,University,2000.0,11325.0,1954.0,1574.0,333.0,,Sold,,,http://www.redfin.com/CT/Fairfield/182-Woods-End-Rd-06824/home/107138544,Smart MLS,99182104,N,Y,41.1658427,-73.26344
270,PAST SALE,June-21-2017,Single Family Residential,255 Seaver Cir,Bridgeport,CT,6606,221000.0,4.0,1.0,North End,1521.0,11761.0,1951.0,1580.0,145.0,,Sold,,,http://www.redfin.com/CT/Bridgeport/255-Seaver-Cir-06606/home/107050095,Smart MLS,99183279,N,Y,41.2252369,-73.2293311
271,PAST SALE,,Condo/Co-op,2A Jeanette St #53,Danbury,CT,6811,120900.0,1.0,1.0,,741.0,,1984.0,,163.0,,,,,http://www.redfin.com/CT/Danbury/2A-Jeanette-St-06811/unit-53/home/107003627,,,N,Y,41.4218613,-73.467878
272,PAST SALE,March-16-2017,Single Family Residential,1524 Bronson Rd,Fairfield,CT,6824,585000.0,3.0,2.5,Southport,2410.0,112384.0,1953.0,1677.0,243.0,,Sold,,,http://www.redfin.com/CT/Fairfield/1524-Bronson-Rd-06824/home/107148440,Smart MLS,99161813,N,Y,41.1599145,-73.2759372
273,PAST SALE,May-19-2017,Single Family Residential,73 Rhode Island Ave,Fairfield,CT,6824,340000.0,3.0,2.0,Fairfield,1665.0,4791.0,1965.0,1613.0,204.0,,Sold,,,http://www.redfin.com/CT/Fairfield/73-Rhode-Island-Ave-06824/home/107146318,Smart MLS,99179255,N,Y,41.161069,-73.237902
274,PAST SALE,August-4-2017,Single Family Residential,1060 Merritt St,Fairfield,CT,6825,312000.0,3.0,2.0,Stratfield,1474.0,4791.0,1914.0,1536.0,212.0,,Sold,,,http://www.redfin.com/CT/Fairfield/1060-Merritt-St-06825/home/107145884,Smart MLS,99186387,N,Y,41.2032278,-73.2258632
275,PAST SALE,April-21-2017,Single Family Residential,1172 Unquowa Rd,Fairfield,CT,6824,685000.0,4.0,2.5,Sturges,3123.0,6969.0,1927.0,1641.0,219.0,,Sold,,,http://www.redfin.com/CT/Fairfield/1172-Unquowa-Rd-06824/home/107134857,Smart MLS,99167884,N,Y,41.1501084,-73.2697866
276,PAST SALE,July-28-2017,Single Family Residential,52 Pemburn Dr,Fairfield,CT,6824,580000.0,4.0,3.0,University,1725.0,13503.0,1951.0,1543.0,336.0,,Sold,,,http://www.redfin.com/CT/Fairfield/52-Pemburn-Dr-06824/home/107141322,Smart MLS,99187379,N,Y,41.1674174,-73.2468873
277,PAST SALE,August-1-2017,Single Family Residential,146 Holmes St,Stratford,CT,6615,269000.0,4.0,1.5,Stratford,2038.0,4791.0,1918.0,1539.0,132.0,,Sold,,,http://www.redfin.com/CT/Stratford/146-Holmes-St-06615/home/107214222,Smart MLS,B10224234,N,Y,41.1841612,-73.1330935
278,PAST SALE,April-28-2017,Condo/Co-op,55 Mill Plain Rd Unit 7-1,Danbury,CT,6811,145000.0,1.0,1.5,Mill Plain,1100.0,,1982.0,1634.0,132.0,177.0,Sold,,,http://www.redfin.com/CT/Danbury/55-Mill-Plain-Rd-06811/unit-7-1/home/106987481,Smart MLS,99171801,N,Y,41.3909042,-73.5028286
279,PAST SALE,,Single Family Residential,49 Rising Ridge Rd,Ridgefield,CT,6877,705000.0,4.0,2.5,,2884.0,43996.0,1968.0,,244.0,,,,,http://www.redfin.com/CT/Ridgefield/49-Rising-Ridge-Rd-06877/home/53650535,,,N,Y,41.2618505,-73.4688216
280,PAST SALE,January-26-2018,Single Family Residential,114 Blaine St,Fairfield,CT,6824,745000.0,3.0,2.5,Beach,2554.0,6534.0,1924.0,1361.0,292.0,,Sold,,,http://www.redfin.com/CT/Fairfield/114-Blaine-St-06824/home/107131094,Smart MLS,170026649,N,Y,41.1369987,-73.2603415
281,PAST SALE,November-17-2017,Single Family Residential,140 New England Ave,Fairfield,CT,6824,280500.0,3.0,1.5,Grasmere,1333.0,7405.0,1927.0,1431.0,210.0,,Sold,,,http://www.redfin.com/CT/Fairfield/140-New-England-Ave-06824/home/107145159,Smart MLS,99187437,N,Y,41.1611639,-73.2388582
282,PAST SALE,,Multi-Family (2-4 Unit),34 Shinnacock Trl,Shelton,CT,6484,238000.0,3.0,2.0,,906.0,8712.0,1986.0,,263.0,,,,,http://www.redfin.com/CT/Shelton/34-Shinnacock-Trl-06484/home/107188347,,,N,Y,41.2617704,-73.1004058
283,PAST SALE,August-2-2017,Single Family Residential,462 Wormwood Rd,Fairfield,CT,6824,749000.0,4.0,2.5,University,3099.0,9583.0,2001.0,1538.0,242.0,,Sold,,,http://www.redfin.com/CT/Fairfield/462-Wormwood-Rd-06824/home/107139018,Smart MLS,99186284,N,Y,41.1623687,-73.2525087
284,PAST SALE,August-31-2017,Single Family Residential,994 N Benson Rd,Fairfield,CT,6824,460000.0,4.0,2.0,University,1690.0,12196.0,1959.0,1509.0,272.0,,Sold,,,http://www.redfin.com/CT/Fairfield/994-N-Benson-Rd-06824/home/107126326,Smart MLS,99182582,N,Y,41.160204,-73.253133
285,PAST SALE,June-2-2017,Single Family Residential,83 Lobdell Dr,Stratford,CT,6614,265000.0,3.0,2.0,Paradise Green,1794.0,8276.0,1947.0,1599.0,148.0,,Sold,,,http://www.redfin.com/CT/Stratford/83-Lobdell-Dr-06614/home/107211830,Smart MLS,99167458,N,Y,41.2098825,-73.1350681
286,PAST SALE,April-6-2017,Single Family Residential,20 Reservoir Rd,Bethel,CT,6801,375000.0,4.0,2.5,Bethel,2297.0,30927.0,1995.0,1656.0,163.0,,Sold,,,http://www.redfin.com/CT/Bethel/20-Reservoir-Rd-06801/home/166893432,Smart MLS,99165075,N,Y,41.3635753,-73.431856
287,PAST SALE,November-28-2017,Single Family Residential,62 Indian Hill Rd,Stamford,CT,6902,875000.0,4.0,2.5,Westover,2762.0,43995.0,1955.0,1420.0,317.0,,Sold,,,http://www.redfin.com/CT/Stamford/62-Indian-Hill-Rd-06902/home/107086008,Smart MLS,99180211,N,Y,41.0660893,-73.5644969
288,PAST SALE,July-27-2017,Condo/Co-op,193 Hamilton Ave #18,Greenwich,CT,6830,650000.0,3.0,3.0,Greenwich,2549.0,,1989.0,1544.0,255.0,400.0,Sold,,,http://www.redfin.com/CT/Greenwich/193-Hamilton-Ave-06830/unit-18/home/107022262,Smart MLS,99175831,N,Y,41.0151504,-73.6401456
289,PAST SALE,November-9-2017,Single Family Residential,21 Cummings Ave,Fairfield,CT,6824,520000.0,3.0,2.0,Beach,1280.0,7405.0,1951.0,1439.0,406.0,,Sold,,,http://www.redfin.com/CT/Fairfield/21-Cummings-Ave-06824/home/107140029,Smart MLS,170021028,N,Y,41.1337651,-73.2514144
290,PAST SALE,June-29-2017,Single Family Residential,49 Calhoun Dr,Greenwich,CT,6831,2650000.0,4.0,3.5,Greenwich,3631.0,48351.0,1909.0,1572.0,730.0,133.0,Sold,,,http://www.redfin.com/CT/Greenwich/49-Calhoun-Dr-06831/home/107023532,GMLS,99095,N,Y,41.0281622,-73.6467684
291,PAST SALE,March-27-2017,Single Family Residential,6 Chapel Ln,Greenwich,CT,6878,1280000.0,4.0,2.5,Riverside,1547.0,11325.0,1924.0,1666.0,827.0,,Sold,,,http://www.redfin.com/CT/RIVERSIDE/6-CHAPEL-LN-06878/home/107020023,Smart MLS,99167362,N,Y,41.03248,-73.588762
292,PAST SALE,May-19-2017,Multi-Family (2-4 Unit),115 Ruane St,Fairfield,CT,6824,545000.0,4.0,2.0,Center,2324.0,5662.0,1914.0,1613.0,235.0,,Sold,,,http://www.redfin.com/CT/Fairfield/115-Ruane-St-06824/home/107132450,Smart MLS,99163748,N,Y,41.1393248,-73.261187
293,PAST SALE,September-22-2017,Single Family Residential,11 4th Ave,Shelton,CT,6484,50000.0,1.0,1.0,Sunnyside Park,700.0,,2004.0,1487.0,71.0,363.0,Sold,,,http://www.redfin.com/CT/Shelton/11-4th-Ave-06484/home/107179988,Smart MLS,99191708,N,Y,41.2927867,-73.0699033
294,PAST SALE,December-13-2016,Single Family Residential,31 Byram Dock St,Greenwich,CT,6830,1375000.0,5.0,3.5,Byram,2717.0,8276.0,1893.0,1770.0,506.0,,Sold,,,http://www.redfin.com/CT/Greenwich/31-Byram-Dock-St-06830/home/148646009,Smart MLS,99162438,N,Y,41.0008241,-73.6473433
295,PAST SALE,June-30-2017,Single Family Residential,37 Glen Rd,Greenwich,CT,6830,1295000.0,4.0,3.5,Greenwich,2458.0,7840.0,1953.0,1571.0,527.0,,Sold,,,http://www.redfin.com/CT/Greenwich/37-Glen-Rd-06830/home/107026488,GMLS,99137,N,Y,41.0365752,-73.6308778
296,PAST SALE,May-15-2017,Townhouse,19 Le Grande Ave #17,Greenwich,CT,6830,615000.0,2.0,1.5,Greenwich,1211.0,,1973.0,1617.0,508.0,,Sold,,,http://www.redfin.com/CT/Greenwich/19-Le-Grande-Ave-06830/unit-17/home/107012155,GMLS,98741,N,Y,41.0268059,-73.617263
297,PAST SALE,,Multi-Family (2-4 Unit),69 Bruce Park Ave,Greenwich,CT,6830,750000.0,4.0,2.5,,1839.0,6098.0,1914.0,,408.0,,,,,http://www.redfin.com/CT/Greenwich/69-Bruce-Park-Ave-06830/home/107018298,,,N,Y,41.0227276,-73.6214027
298,PAST SALE,,Single Family Residential,62 Arch St,Riverside,CT,6878,3100000.0,5.0,3.0,,4815.0,16117.0,1962.0,,644.0,,,,,http://www.redfin.com/CT/Riverside/62-Arch-St-06878/home/107030896,,,N,Y,41.0338956,-73.5730085
299,PAST SALE,October-17-2017,Single Family Residential,15 Relay Pl,Greenwich,CT,6807,1800000.0,4.0,2.5,Cos Cob,9999.0,7405.0,2016.0,1462.0,180.0,,Sold,,,http://www.redfin.com/CT/Cos-Cob/15-Relay-Pl-06807/home/107019259,Smart MLS,99159671,N,Y,41.0376222,-73.5980274
300,PAST SALE,,Condo/Co-op,108 E Elm St,Greenwich,CT,6830,4650000.0,6.0,7.5,,6198.0,,2010.0,,750.0,,,,,http://www.redfin.com/CT/Greenwich/108-E-Elm-St-06830/home/107031269,,,N,Y,41.0275757,-73.6199661
301,PAST SALE,August-7-2017,Single Family Residential,9 Byram Dock St,Greenwich,CT,6830,3400000.0,4.0,4.5,Greenwich,4193.0,15681.0,2016.0,1533.0,811.0,,Sold,,,http://www.redfin.com/CT/Greenwich/9-Byram-Dock-St-06830/home/107025211,GMLS,98315,N,Y,41.0008767,-73.6470443
302,PAST SALE,November-14-2017,Single Family Residential,34 Lauder Ln,Greenwich,CT,6831,3437500.0,5.0,6.0,Greenwich,4797.0,101494.0,1967.0,1434.0,717.0,,Sold,,,http://www.redfin.com/CT/Greenwich/34-Lauder-Way-06830/home/107020289,GMLS,101559,N,Y,41.043007,-73.638952
303,PAST SALE,August-18-2017,Single Family Residential,86 Round Hill Rd,Greenwich,CT,6831,2475000.0,3.0,3.5,Greenwich,3029.0,105850.0,1954.0,1522.0,817.0,,Sold,,,http://www.redfin.com/CT/Greenwich/86-Round-Hill-Rd-06831/home/107027410,Smart MLS,99185275,N,Y,41.0571824,-73.6473062
304,PAST SALE,December-18-2017,Single Family Residential,361 Field Point Rd,Greenwich,CT,6830,2725000.0,5.0,4.5,Greenwich,4757.0,21780.0,1998.0,1400.0,573.0,,Sold,,,http://www.redfin.com/CT/Greenwich/361-Field-Point-Rd-06830/home/107017928,Smart MLS,99189476,N,Y,41.0170076,-73.6338736
305,PAST SALE,September-12-2017,Single Family Residential,45 Upland Dr,Greenwich,CT,6831,3250000.0,6.0,8.0,Glenville,11885.0,66211.0,2006.0,1497.0,273.0,1600.0,Sold,,,http://www.redfin.com/CT/Greenwich/45-Upland-Dr-06831/home/107012779,Smart MLS,99179745,N,Y,41.0298261,-73.6429051
306,PAST SALE,May-22-2017,Single Family Residential,8 Old Dodgingtown Rd,Bethel,CT,6801,445000.0,4.0,2.5,Bethel,3270.0,87120.0,1992.0,1610.0,136.0,,Sold,,,http://www.redfin.com/CT/Bethel/8-Old-Dodgingtown-Rd-06801/home/107283013,Smart MLS,99178271,N,Y,41.365312,-73.354486
307,PAST SALE,May-31-2017,Single Family Residential,143 Codfish Hill Rd,Bethel,CT,6801,371000.0,4.0,2.5,Codfish Hill,2786.0,84070.0,1996.0,1601.0,133.0,,Sold,,,http://www.redfin.com/CT/Bethel/143-Codfish-Hill-Rd-06801/home/107283082,Smart MLS,99174396,N,Y,41.3807826,-73.369373
308,PAST SALE,October-28-2017,Single Family Residential,77 Castle Hill Rd,Newtown,CT,6470,237500.0,4.0,2.0,Taunton,1748.0,43560.0,1959.0,1451.0,136.0,,Sold,,,http://www.redfin.com/CT/Newtown/77-Castle-Hill-Rd-06470/home/107630430,Smart MLS,170010322,N,Y,41.4046943,-73.3272316
309,PAST SALE,June-20-2017,Single Family Residential,18 Rock Ridge Rd,Newtown,CT,6470,450000.0,4.0,4.0,Hattertown,2430.0,87555.0,1950.0,1581.0,185.0,,Sold,,,http://www.redfin.com/CT/Newtown/18-Rock-Ridge-Rd-06470/home/107632928,Smart MLS,99184649,N,Y,41.3811215,-73.3433983
310,PAST SALE,May-18-2017,Single Family Residential,6 Smoke Rise Rdg,Newtown,CT,6470,360000.0,4.0,2.5,Borough,3588.0,43560.0,1961.0,1614.0,100.0,,Sold,,,http://www.redfin.com/CT/Newtown/6-Smoke-Rise-Rdg-06470/home/107633061,Smart MLS,99179618,N,Y,41.4173315,-73.3223491
311,PAST SALE,March-29-2017,Single Family Residential,12 Saw Mill Rd,Newtown,CT,6470,265000.0,3.0,4.0,Newtown,1470.0,43560.0,1969.0,1664.0,180.0,,Sold,,,http://www.redfin.com/CT/Newtown/12-Saw-Mill-Rd-06470/home/107641734,Smart MLS,99171834,N,Y,41.4169998,-73.3511357
312,PAST SALE,,Condo/Co-op,6 Woods Ln,Newtown,CT,6470,399995.0,2.0,2.5,,1879.0,,2016.0,,213.0,,,,,http://www.redfin.com/CT/Newtown/6-Woods-Ln-06470/home/107646109,,,N,Y,41.418585,-73.3699244
313,PAST SALE,January-22-2018,Single Family Residential,15 Taunton Lake Rd,Newtown,CT,6470,3200000.0,4.0,6.5,Taunton,13322.0,426888.0,2006.0,1365.0,240.0,,Sold,,,http://www.redfin.com/CT/Newtown/15-Taunton-Lake-Rd-06470/home/107651656,Smart MLS,L10147742,N,Y,41.412584,-73.3399727
314,PAST SALE,August-2-2017,Single Family Residential,20 Poverty Hollow Rd,Newtown,CT,6470,355000.0,4.0,3.0,Hattertown,2568.0,43560.0,1959.0,1538.0,138.0,,Sold,,,http://www.redfin.com/CT/Newtown/20-Poverty-Hollow-Rd-06470/home/107649908,Smart MLS,99175220,N,Y,41.3659864,-73.3374718
315,PAST SALE,April-7-2017,Single Family Residential,7 Fieldstone Dr,Newtown,CT,6470,313000.0,3.0,1.5,Hattertown,2688.0,41382.0,1961.0,1655.0,116.0,,Sold,,,http://www.redfin.com/CT/Newtown/7-Fieldstone-Dr-06470/home/107649554,Smart MLS,99169985,N,Y,41.3664428,-73.3238231
316,PAST SALE,May-3-2017,Condo/Co-op,48 Whittlesey Dr #48,Bethel,CT,6801,156500.0,2.0,1.5,Plumtrees,1040.0,,1973.0,1629.0,150.0,232.0,Sold,,,http://www.redfin.com/CT/Bethel/48-Whittlesey-Dr-06801/unit-48/home/144522658,Smart MLS,99169836,N,Y,41.3834606,-73.3975955
317,PAST SALE,April-19-2017,Condo/Co-op,93 Woods Ln #93,Newtown,CT,6470,460810.0,2.0,2.5,Newtown,1540.0,,2016.0,1643.0,299.0,287.0,Sold,,,http://www.redfin.com/CT/Newtown/93-Woods-Ln-06470/unit-93/home/148689225,Smart MLS,99127951,N,Y,41.4191207,-73.370236
318,PAST SALE,,Condo/Co-op,62 Copper Square Dr,Bethel,CT,6801,338000.0,2.0,2.5,,1704.0,,2014.0,,198.0,,,,,http://www.redfin.com/CT/Bethel/62-Copper-Square-Dr-06801/home/109745398,,,N,Y,41.417956,-73.385848
319,PAST SALE,September-14-2017,Single Family Residential,31 Country Way,Bethel,CT,6801,700000.0,4.0,3.5,Country Way Estates,5140.0,153766.0,2001.0,1495.0,136.0,,Sold,,,http://www.redfin.com/CT/Bethel/31-Country-Way-06801/home/107280605,Smart MLS,F10223328,N,Y,41.3482891,-73.3943085
320,PAST SALE,October-24-2017,Single Family Residential,38 Scudder Rd,Newtown,CT,6470,342000.0,4.0,1.5,Taunton,1843.0,63597.0,1965.0,1455.0,186.0,,Sold,,,http://www.redfin.com/CT/Newtown/38-Scudder-Rd-06470/home/107627018,Smart MLS,F10235984,N,Y,41.3918854,-73.3393386
321,PAST SALE,,Condo/Co-op,12 Woods Way,Redding,CT,6896,555000.0,3.0,3.5,,2044.0,,2001.0,,272.0,,,,,http://www.redfin.com/CT/Redding/12-Woods-Way-06896/home/107080531,,,N,Y,41.337388,-73.3746559
322,PAST SALE,October-4-2017,Single Family Residential,26 Sundance Dr,Cos Cob,CT,6807,1161000.0,5.0,2.5,Cos Cob,2447.0,15681.0,1976.0,1475.0,474.0,,Sold,,,http://www.redfin.com/CT/Cos-Cob/26-Sundance-Dr-06807/home/107022410,GMLS,100427,N,Y,41.0624618,-73.5850621
323,PAST SALE,May-18-2017,Condo/Co-op,2700 Bedford St Unit K,Stamford,CT,6905,390000.0,3.0,2.5,Mid City,1410.0,,1986.0,1614.0,277.0,330.0,Sold,,,http://www.redfin.com/CT/Stamford/2700-Bedford-St-06905/unit-K/home/107102785,Smart MLS,99178065,N,Y,41.0704233,-73.5478639
324,PAST SALE,April-5-2017,Condo/Co-op,444 Bedford St Unit 8D,Stamford,CT,6901,176000.0,1.0,1.0,Mid City,620.0,,1972.0,1657.0,284.0,507.0,Sold,,,http://www.redfin.com/CT/Stamford/444-Bedford-St-06901/unit-8D/home/107087024,Smart MLS,99167363,N,Y,41.0581501,-73.5383945
325,PAST SALE,September-9-2017,Condo/Co-op,444 Bedford St Unit 4S,Stamford,CT,6901,280000.0,2.0,1.0,Mid City,980.0,,1972.0,1500.0,286.0,455.0,Sold,,,http://www.redfin.com/CT/Stamford/444-Bedford-St-06901/unit-4S/home/107113262,Smart MLS,99194253,N,Y,41.0581501,-73.5383945
326,PAST SALE,January-5-2018,Condo/Co-op,444 Bedford St Unit 2H,Stamford,CT,6901,216000.0,1.0,1.0,Mid City,770.0,,1972.0,1382.0,281.0,361.0,Sold,,,http://www.redfin.com/CT/Stamford/444-Bedford-St-06901/unit-2H/home/107093540,Smart MLS,170035566,N,Y,41.0581501,-73.5383945
327,PAST SALE,August-18-2017,Condo/Co-op,700 Summer St Unit 3H,Stamford,CT,6901,171000.0,1.0,1.0,Mid City,590.0,,1961.0,1522.0,290.0,347.0,Sold,,,http://www.redfin.com/CT/Stamford/700-Summer-St-06901/unit-3H/home/107109959,Smart MLS,99190633,N,Y,41.0579863,-73.5404096
328,PAST SALE,July-6-2017,Single Family Residential,22 Griffith Rd,Greenwich,CT,6878,1440000.0,4.0,2.5,Riverside,3630.0,7405.0,1968.0,1565.0,397.0,,Sold,,,http://www.redfin.com/CT/Riverside/22-Griffith-Rd-06878/home/107015042,Smart MLS,99182778,N,Y,41.0477768,-73.5790354
329,PAST SALE,May-31-2017,Single Family Residential,4 Sickle Bar Ln,Riverside,CT,6878,1600000.0,4.0,2.5,Riverside,3438.0,9147.0,2003.0,1601.0,465.0,,Sold,,,http://www.redfin.com/CT/Riverside/4-Sickle-Bar-Ln-06878/home/107018140,GMLS,99762,N,Y,41.0445562,-73.576413
330,PAST SALE,July-5-2017,Condo/Co-op,77 Havemeyer Ln #68,Stamford,CT,6902,1249000.0,4.0,4.5,Westover,4340.0,,2013.0,1566.0,288.0,465.0,Sold,,,http://www.redfin.com/CT/Stamford/77-Havemeyer-Ln-06902/unit-68/home/107118330,Smart MLS,99173892,N,Y,41.0553933,-73.5667284
331,PAST SALE,August-1-2017,Single Family Residential,106 Florence Rd,Greenwich,CT,6878,992650.0,4.0,3.0,Riverside,2108.0,13503.0,1962.0,1539.0,471.0,,Sold,,,http://www.redfin.com/CT/Riverside/106-Florence-Rd-06878/home/107016967,Smart MLS,99185944,N,Y,41.0557605,-73.5738366
332,PAST SALE,,Condo/Co-op,700 Summer St Unit 7J,Stamford,CT,6901,165000.0,1.0,1.0,,611.0,,1961.0,,270.0,,,,,http://www.redfin.com/CT/Stamford/700-Summer-St-06901/unit-7J/home/107089480,,,N,Y,41.0579863,-73.5404096
333,PAST SALE,July-19-2017,Single Family Residential,12 Marvin St,Norwalk,CT,6855,631000.0,3.0,2.0,Norwalk,3900.0,14374.0,1959.0,1552.0,162.0,,Sold,,,http://www.redfin.com/CT/Norwalk/12-Marvin-St-06855/home/107860177,Smart MLS,99186679,N,Y,41.095864,-73.3950222
334,PAST SALE,June-12-2017,Condo/Co-op,146 Cold Spring Rd #10,Stamford,CT,6905,275000.0,2.0,1.5,Mid City,1873.0,,1980.0,1589.0,147.0,375.0,Sold,,,http://www.redfin.com/CT/Stamford/146-Cold-Spring-Rd-06905/unit-10/home/107083540,Smart MLS,99178133,N,Y,41.0684566,-73.5540054
335,PAST SALE,August-1-2017,Single Family Residential,17 Angelus Dr,Greenwich,CT,6831,949000.0,3.0,2.5,Glenville,2363.0,10454.0,1973.0,1539.0,402.0,,Sold,,,http://www.redfin.com/CT/Greenwich/17-Angelus-Dr-06831/home/107017917,Smart MLS,99181115,N,Y,41.0398913,-73.6650755
336,PAST SALE,,Single Family Residential,36 W Brother Dr,Greenwich,CT,6830,5400000.0,7.0,7.5,,8751.0,33977.0,1929.0,,617.0,,,,,http://www.redfin.com/CT/Greenwich/36-W-Brother-Dr-06830/home/107019686,,,N,Y,41.0341207,-73.6124332
337,PAST SALE,October-2-2017,Single Family Residential,29 Wenzel Ter,Stamford,CT,6902,530000.0,4.0,3.5,Mid City,2569.0,9583.0,1933.0,1477.0,206.0,,Sold,,,http://www.redfin.com/CT/Stamford/29-Wenzel-Ter-06902/home/107091604,Smart MLS,99182720,N,Y,41.0620803,-73.5277948
338,PAST SALE,July-13-2017,Single Family Residential,356 Mapledale Pl,Bridgeport,CT,6610,164000.0,3.0,1.0,Treeland,1341.0,7405.0,1935.0,1558.0,122.0,,Sold,,,http://www.redfin.com/CT/Bridgeport/356-Mapledale-Pl-06610/home/107048677,Smart MLS,99185098,N,Y,41.2195042,-73.1716303
339,PAST SALE,June-5-2017,Single Family Residential,215 White Plains Rd,Trumbull,CT,6611,284000.0,3.0,2.0,Trumbull Center,1763.0,20037.0,1916.0,1596.0,161.0,,Sold,,,http://www.redfin.com/CT/Trumbull/215-White-Plains-Rd-06611/home/107208060,Smart MLS,99151822,N,Y,41.2295196,-73.1780832
340,PAST SALE,March-24-2017,Single Family Residential,95 Fairfax Dr,Stratford,CT,6614,215000.0,2.0,1.0,North End,1168.0,10890.0,1960.0,1669.0,184.0,,Sold,,,http://www.redfin.com/CT/Stratford/95-Fairfax-Dr-06614/home/107208938,Smart MLS,B10189783,N,Y,41.2305633,-73.1400084
341,PAST SALE,April-10-2017,Single Family Residential,635 Hilltop Dr,Stratford,CT,6614,376760.0,3.0,2.0,North End,2024.0,12632.0,1942.0,1652.0,186.0,,Sold,,,http://www.redfin.com/CT/Stratford/635-Hilltop-Dr-06614/home/107210600,Smart MLS,99170979,N,Y,41.2251921,-73.1288406
342,PAST SALE,August-25-2017,Single Family Residential,240 Highland Ave,Stratford,CT,6614,440000.0,5.0,3.5,Stratford,2651.0,9147.0,2008.0,1515.0,166.0,,Sold,,,http://www.redfin.com/CT/Stratford/240-Highland-Ave-06614/home/107214829,Smart MLS,99191987,N,Y,41.2177655,-73.1287023
343,PAST SALE,May-11-2017,Single Family Residential,855 Cutspring Rd,Stratford,CT,6614,238500.0,2.0,1.0,North End,1127.0,15245.0,1950.0,1621.0,212.0,,Sold,,,http://www.redfin.com/CT/Stratford/855-Cutspring-Rd-06614/home/107215484,Smart MLS,99169365,N,Y,41.2293384,-73.1262705
344,PAST SALE,December-21-2017,Single Family Residential,325 Goldbach Dr,Stratford,CT,6614,315000.0,3.0,2.0,Stratford,1800.0,10018.0,1964.0,1397.0,175.0,,Sold,,,http://www.redfin.com/CT/Stratford/325-Goldbach-Dr-06614/home/107219267,Smart MLS,170029310,N,Y,41.2307142,-73.1450793
345,PAST SALE,June-1-2017,Single Family Residential,41 Green Valley Rd,Stratford,CT,6614,280000.0,3.0,1.5,North End,1420.0,23086.0,1954.0,1600.0,197.0,,Sold,,,http://www.redfin.com/CT/Stratford/41-Green-Valley-Rd-06614/home/107224917,Smart MLS,99141277,N,Y,41.2262399,-73.153224
346,PAST SALE,December-1-2017,Single Family Residential,400 Wilbar Dr,Stratford,CT,6614,240000.0,3.0,2.0,North End,1860.0,12632.0,1960.0,1417.0,129.0,,Sold,,,http://www.redfin.com/CT/Stratford/400-Wilbar-Dr-06614/home/107225440,Smart MLS,99191369,N,Y,41.2281203,-73.1449641
347,PAST SALE,June-9-2017,Single Family Residential,280 Quenby Pl,Stratford,CT,6614,260000.0,3.0,2.0,North End,1248.0,10890.0,1965.0,1592.0,208.0,,Sold,,,http://www.redfin.com/CT/Stratford/280-Quenby-Pl-06614/home/107224128,Smart MLS,N10207588,N,Y,41.2325914,-73.144356
348,PAST SALE,November-1-2017,Single Family Residential,7 Keofferam Rd,Old Greenwich,CT,6870,2675000.0,5.0,4.5,Old Greenwich,3520.0,10018.0,1927.0,1447.0,760.0,,Sold,,,http://www.redfin.com/CT/Old-Greenwich/7-Keofferam-Rd-06870/home/107019169,GMLS,99436,N,Y,41.0204903,-73.5642209
349,PAST SALE,,Single Family Residential,7 Waterfall Ln,Cos Cob,CT,6807,820000.0,4.0,1.0,,1246.0,13939.0,1900.0,,658.0,,,,,http://www.redfin.com/CT/Cos-Cob/7-Waterfall-Ln-06807/home/107014745,,,N,Y,41.0543627,-73.5861
350,PAST SALE,August-16-2021,Single Family Residential,208 Saddle Hill Rd,Manchester,CT,6040,350000.0,3.0,2.0,Keeney,1940.0,12196.0,1978.0,63.0,180.0,,Sold,,,http://www.redfin.com/CT/Manchester/208-Saddle-Hill-Rd-06040/home/53868762,Smart MLS,170412989,N,Y,41.7466259,-72.5518849
351,PAST SALE,February-28-2019,Single Family Residential,130 Holley Rd,Bristol,CT,6010,165500.0,3.0,2.5,Bristol,1236.0,15245.0,1973.0,963.0,134.0,,Sold,,,http://www.redfin.com/CT/Bristol/130-Holley-Rd-06010/home/54408412,Smart MLS,170146925,N,Y,41.6794787,-72.9242702
352,PAST SALE,July-26-2018,Single Family Residential,55 Fawn Dr,Plainville,CT,6062,365000.0,4.0,4.0,Plainville,2486.0,39204.0,1995.0,1180.0,147.0,,Sold,,,http://www.redfin.com/CT/Plainville/55-Fawn-Dr-06062/home/53798974,Smart MLS,170091162,N,Y,41.6919897,-72.8417579
353,PAST SALE,July-9-2021,Single Family Residential,93 Laurel St,Manchester,CT,6040,223000.0,3.0,1.5,Central,1248.0,8712.0,2004.0,101.0,179.0,,Sold,,,http://www.redfin.com/CT/Manchester/93-Laurel-St-06040/home/53866784,Smart MLS,170389004,N,Y,41.7715493,-72.5285936
354,PAST SALE,August-10-2021,Single Family Residential,5 Aspenwood,Avon,CT,6001,645000.0,5.0,3.5,West Avon,3667.0,40075.0,2013.0,69.0,176.0,,Sold,,,http://www.redfin.com/CT/AVON/5-ASPENWOOD-06001/home/136439690,Smart MLS,170412682,N,Y,41.791229,-72.849043
355,PAST SALE,September-25-2019,Condo/Co-op,268 Alewife Ln #268,Suffield,CT,6078,199000.0,2.0,2.5,Suffield,1932.0,,1985.0,754.0,103.0,324.0,Sold,,,http://www.redfin.com/CT/Suffield/268-Alewife-Ln-06078/unit-268/home/172907710,Smart MLS,170187064,N,Y,41.9939634,-72.6100663
356,PAST SALE,July-9-2021,Single Family Residential,81 Whiting Rd,East Hartford,CT,6118,215000.0,3.0,1.5,East Hartford,1462.0,8712.0,1900.0,101.0,147.0,,Sold,,,http://www.redfin.com/CT/East-Hartford/81-Whiting-Rd-06118/home/54335878,Smart MLS,170404505,N,Y,41.7570581,-72.6363142
357,PAST SALE,July-3-2018,Single Family Residential,67 Carson Way,South Windsor,CT,6074,363000.0,4.0,2.5,South Windsor,2166.0,22651.0,1994.0,1203.0,168.0,,Sold,,,http://www.redfin.com/CT/South-Windsor/67-Carson-Way-06074/home/54127960,Smart MLS,170082420,N,Y,41.8529964,-72.5172245
358,PAST SALE,June-14-2019,Single Family Residential,6 Haystack Ln,South Windsor,CT,6074,395000.0,4.0,2.5,South Windsor,2545.0,23958.0,1987.0,857.0,155.0,,Sold,,,http://www.redfin.com/CT/South-Windsor/6-Haystack-Ln-06074/home/54135093,Smart MLS,170174257,N,Y,41.8549168,-72.5402164
359,PAST SALE,September-23-2019,Single Family Residential,8 Cobblestone Rd,Farmington,CT,6085,454500.0,4.0,2.5,Unionville,3115.0,19602.0,1988.0,756.0,146.0,,Sold,,,http://www.redfin.com/CT/Unionville/8-Cobblestone-Rd-06085/home/54430765,Smart MLS,170218135,N,Y,41.745351,-72.8746312
360,PAST SALE,May-17-2018,Single Family Residential,56 Harvest Ln,West Hartford,CT,6117,350000.0,3.0,3.5,West Hartford,2523.0,12632.0,1954.0,1250.0,139.0,,Sold,,,http://www.redfin.com/CT/East-Hartford/56-Harvest-Ln-06118/home/53966589,Smart MLS,170070871,N,Y,41.7386335,-72.5727532
361,PAST SALE,June-25-2018,Single Family Residential,750 Kennedy Rd,Windsor,CT,6095,184000.0,3.0,1.0,Windsor,1344.0,37026.0,1952.0,1211.0,137.0,,Sold,,,http://www.redfin.com/CT/Windsor/750-Kennedy-Rd-06095/home/54272090,Smart MLS,170079277,N,Y,41.8839927,-72.642812
362,PAST SALE,October-1-2018,Single Family Residential,112 Grandview St,Manchester,CT,6040,190000.0,3.0,1.0,East Side,1577.0,20037.0,1953.0,1113.0,120.0,,Sold,,,http://www.redfin.com/CT/Manchester/112-Grandview-St-06040/home/53861663,Smart MLS,170127690,N,Y,41.7712899,-72.5021111
363,PAST SALE,February-10-2020,Single Family Residential,5 Brian Rd,West Hartford,CT,6110,248000.0,4.0,2.0,Elmwood,1332.0,7405.0,1953.0,616.0,186.0,,Sold,,,http://www.redfin.com/CT/West-Hartford/5-Brian-Rd-06110/home/53963509,Smart MLS,170254762,N,Y,41.7253688,-72.7392596
364,PAST SALE,July-9-2021,Condo/Co-op,114 S Washington St #2,Plainville,CT,6062,105000.0,1.0,1.0,Plainville,552.0,,1985.0,101.0,190.0,150.0,Sold,,,http://www.redfin.com/CT/Plainville/114-S-Washington-St-06062/unit-2/home/53794923,Smart MLS,170403282,N,Y,41.662895,-72.874658
365,PAST SALE,January-26-2021,Single Family Residential,131 Brentwood Dr,Southington,CT,6489,560000.0,3.0,2.5,Southington,3694.0,81892.0,2002.0,265.0,152.0,,Sold,,,http://www.redfin.com/CT/Southington/131-Brentwood-Dr-06489/home/53717763,Smart MLS,170361071,N,Y,41.6060178,-72.9289462
366,PAST SALE,August-29-2019,Single Family Residential,17 Riverview Rd,Glastonbury,CT,6033,617000.0,4.0,2.5,Glastonbury,2960.0,25264.0,1991.0,781.0,208.0,,Sold,,,http://www.redfin.com/CT/Glastonbury/17-Riverview-Rd-06033/home/54174090,Smart MLS,170202549,N,Y,41.6772569,-72.6038208
367,PAST SALE,December-28-2020,Single Family Residential,1250 Pleasant St,Southington,CT,6489,370000.0,3.0,2.5,Southington,2159.0,21780.0,1990.0,294.0,171.0,,Sold,,,http://www.redfin.com/CT/Southington/1250-Pleasant-St-06489/home/53727588,Smart MLS,170338670,N,Y,41.6316451,-72.8608251
368,PAST SALE,August-11-2021,Single Family Residential,4 Chaffee Ln,Farmington,CT,6085,427500.0,4.0,2.5,Unionville,1984.0,23958.0,1976.0,68.0,215.0,,Sold,,,http://www.redfin.com/CT/Unionville/4-Chaffee-Ln-06085/home/54425336,Smart MLS,170412642,N,Y,41.7423142,-72.8815945
369,PAST SALE,April-23-2021,Single Family Residential,75 Riggs Ave,West Hartford,CT,6107,549000.0,4.0,3.0,West Hartford,2261.0,13939.0,1967.0,178.0,243.0,,Sold,,,http://www.redfin.com/CT/West-Hartford/75-Riggs-Ave-06107/home/53976264,Smart MLS,170369985,N,Y,41.7540554,-72.7503302
370,PAST SALE,January-8-2021,Single Family Residential,58 Goodwin Park Rd,Wethersfield,CT,6109,185000.0,2.0,2.0,Wethersfield,900.0,10018.0,1952.0,283.0,206.0,,Sold,,,http://www.redfin.com/CT/Wethersfield/58-Goodwin-Park-Rd-06109/home/54318903,Smart MLS,170352301,N,Y,41.7240664,-72.6806888
371,PAST SALE,June-28-2019,Multi-Family (2-4 Unit),121 Cambridge St,West Hartford,CT,6110,315000.0,4.0,2.0,West Hartford,2342.0,9147.0,1931.0,843.0,135.0,,Sold,,,http://www.redfin.com/CT/West-Hartford/121-Cambridge-St-06110/home/53963451,Smart MLS,170175493,N,Y,41.7278934,-72.7318134
372,PAST SALE,March-17-2021,Single Family Residential,1204 Farmington Ave,West Hartford,CT,6107,350000.0,3.0,2.0,West Hartford,1942.0,9583.0,1941.0,215.0,180.0,,Sold,,,http://www.redfin.com/CT/West-Hartford/1204-Farmington-Ave-06107/home/53974648,Smart MLS,170351173,N,Y,41.7559039,-72.7634205
373,PAST SALE,August-13-2021,Single Family Residential,283 Russet Ln,Southington,CT,6489,365000.0,3.0,2.5,Southington,1971.0,29185.0,1999.0,66.0,185.0,,Sold,,,http://www.redfin.com/CT/Southington/283-Russet-Ln-06489/home/53716690,Smart MLS,170410734,N,Y,41.6162028,-72.8946224
